{
"type": "FeatureCollection",
"errorDescr": "Church was not found",
"features": [
{"type":"Feature","properties":{"name":"Церква святих рівноапостольських князів Володимира і Ольги","denomination":"ukrainian_greek_catholic","region":"Автономна Республіка Крим"},"geometry":{"type":"Point","coordinates":[36.44418,45.35883]}},
{"type":"Feature","properties":{"name":"Храм священомученика Йосафата","denomination":"ukrainian_greek_catholic","region":"Автономна Республіка Крим"},"geometry":{"type":"Point","coordinates":[34.08818,44.97025]}},
{"type":"Feature","properties":{"name":"Церква Пресвятої Трійці","denomination":"ukrainian_greek_catholic","region":"Автономна Республіка Крим"},"geometry":{"type":"Point","coordinates":[34.21211,44.50729]}},
{"type":"Feature","properties":{"name":"Церква Зарваницької ікони Божої Матері (с. Голдашівка, Вінницької обл.) ","denomination":"ukrainian_greek_catholic","region":"Вінницька область"},"geometry":{"type":"Point","coordinates":[29.70176,48.22214]}},
{"type":"Feature","properties":{"name":"Церква апостола і євангелиста Івана Богослова","denomination":"ukrainian_greek_catholic","region":"Волинська область"},"geometry":{"type":"Point","coordinates":[25.27911,50.90256]}},
{"type":"Feature","properties":{"name":"Церква Стрітення Господнього","denomination":"ukrainian_greek_catholic","region":"Волинська область"},"geometry":{"type":"Point","coordinates":[24.35276,50.63233]}},
{"type":"Feature","properties":{"name":"Церква Покрови Пресвятої Богородиці","denomination":"ukrainian_greek_catholic","region":"Дніпропетровська область"},"geometry":{"type":"Point","coordinates":[34.33344,48.64802]}},
{"type":"Feature","properties":{"name":"Церква УГКЦ","denomination":"ukrainian_greek_catholic","region":"Донецька область"},"geometry":{"type":"Point","coordinates":[36.8836,48.69872]}},
{"type":"Feature","properties":{"name":"Церква святого Миколая Чудотворця","denomination":"ukrainian_greek_catholic","region":"Донецька область"},"geometry":{"type":"Point","coordinates":[37.76481,48.0265]}},
{"type":"Feature","properties":{"name":"Церква Святого Василія Великого","denomination":"ukrainian_greek_catholic","region":"Житомирська область"},"geometry":{"type":"Point","coordinates":[28.70202,50.25892]}},
{"type":"Feature","properties":{"name":"Церква святого Івана Богослова","denomination":"ukrainian_greek_catholic","region":"Житомирська область"},"geometry":{"type":"Point","coordinates":[28.17721,50.03372]}},
{"type":"Feature","properties":{"name":"Церква Святого Миколая","denomination":"ukrainian_greek_catholic","region":"Івано-Франківська область"},"geometry":{"type":"Point","coordinates":[24.62609,49.34827]}},
{"type":"Feature","properties":{"name":"Церква святого Миколая","denomination":"ukrainian_greek_catholic","region":"Івано-Франківська область"},"geometry":{"type":"Point","coordinates":[24.6261,49.34826]}},
{"type":"Feature","properties":{"name":"Церква Пресвятої Богородицi","denomination":"ukrainian_greek_catholic","region":"Івано-Франківська область"},"geometry":{"type":"Point","coordinates":[24.45687,49.35737]}},
{"type":"Feature","properties":{"name":"Церква верховних апостолів Петра і Павла","denomination":"ukrainian_greek_catholic","region":"Івано-Франківська область"},"geometry":{"type":"Point","coordinates":[24.58329,49.2439]}},
{"type":"Feature","properties":{"name":"Церква святої Параскеви","denomination":"ukrainian_greek_catholic","region":"Івано-Франківська область"},"geometry":{"type":"Point","coordinates":[24.45258,49.24984]}},
{"type":"Feature","properties":{"name":"Церква Різдва Пречистої Діви Марії","denomination":"ukrainian_greek_catholic","region":"Івано-Франківська область"},"geometry":{"type":"Point","coordinates":[24.53496,49.19191]}},
{"type":"Feature","properties":{"name":"Церква святого Миколая","denomination":"ukrainian_greek_catholic","region":"Івано-Франківська область"},"geometry":{"type":"Point","coordinates":[24.70765,48.99305]}},
{"type":"Feature","properties":{"name":"Церква Царя Христа","denomination":"ukrainian_greek_catholic","region":"Івано-Франківська область"},"geometry":{"type":"Point","coordinates":[25.0012,48.86292]}},
{"type":"Feature","properties":{"name":"Церква святого Юрія","denomination":"ukrainian_greek_catholic","region":"Івано-Франківська область"},"geometry":{"type":"Point","coordinates":[24.87923,48.87379]}},
{"type":"Feature","properties":{"name":"Церква Пресвятої Трійці (с. Чортовець, Івано-Франківська область) ","denomination":"ukrainian_greek_catholic","region":"Івано-Франківська область"},"geometry":{"type":"Point","coordinates":[25.26991,48.70877]}},
{"type":"Feature","properties":{"name":"Церква Покрови Пресвятої Богородиці","denomination":"ukrainian_greek_catholic","region":"Івано-Франківська область"},"geometry":{"type":"Point","coordinates":[24.70853,48.93501]}},
{"type":"Feature","properties":{"name":"Церква Благовіщення Пресвятої Богородиці","denomination":"ukrainian_greek_catholic","region":"Івано-Франківська область"},"geometry":{"type":"Point","coordinates":[24.69503,48.93849]}},
{"type":"Feature","properties":{"name":"Церква святого Івана Хрестителя","denomination":"ukrainian_greek_catholic","region":"Івано-Франківська область"},"geometry":{"type":"Point","coordinates":[24.73281,48.90481]}},
{"type":"Feature","properties":{"name":"Церква Різдва Пресвятої Богородиці","denomination":"ukrainian_greek_catholic","region":"Івано-Франківська область"},"geometry":{"type":"Point","coordinates":[24.70409,48.91493]}},
{"type":"Feature","properties":{"name":"Церква святого Архистратига Михаїла","denomination":"ukrainian_greek_catholic","region":"Івано-Франківська область"},"geometry":{"type":"Point","coordinates":[24.70522,48.90417]}},
{"type":"Feature","properties":{"name":"Церква Пресвятої Трійці","denomination":"ukrainian_greek_catholic","region":"Івано-Франківська область"},"geometry":{"type":"Point","coordinates":[24.69129,48.90529]}},
{"type":"Feature","properties":{"name":"Церква Вознесіння Господнього","denomination":"ukrainian_greek_catholic","region":"Івано-Франківська область"},"geometry":{"type":"Point","coordinates":[24.69324,48.90117]}},
{"type":"Feature","properties":{"name":"Церква Святих Володимира і Ольги","denomination":"ukrainian_greek_catholic","region":"Івано-Франківська область"},"geometry":{"type":"Point","coordinates":[24.35812,49.03302]}},
{"type":"Feature","properties":{"name":"Церква Преподобної Параскеви","denomination":"ukrainian_greek_catholic","region":"Івано-Франківська область"},"geometry":{"type":"Point","coordinates":[24.72432,48.80805]}},
{"type":"Feature","properties":{"name":"Церква Різдва Пресвятої Богородиці","denomination":"ukrainian_greek_catholic","region":"Івано-Франківська область"},"geometry":{"type":"Point","coordinates":[24.80324,48.76263]}},
{"type":"Feature","properties":{"name":"Церква Успіння Пресвятої Богородиці","denomination":"ukrainian_greek_catholic","region":"Івано-Франківська область"},"geometry":{"type":"Point","coordinates":[24.80251,48.76224]}},
{"type":"Feature","properties":{"name":"Церква святої Параскеви","denomination":"ukrainian_greek_catholic","region":"Івано-Франківська область"},"geometry":{"type":"Point","coordinates":[24.70853,48.75886]}},
{"type":"Feature","properties":{"name":"Церква Покрови Пресвятої Богородиці","denomination":"ukrainian_greek_catholic","region":"Івано-Франківська область"},"geometry":{"type":"Point","coordinates":[25.07604,48.56392]}},
{"type":"Feature","properties":{"name":"Церква Покрови Пресвятої Богородиці","denomination":"ukrainian_greek_catholic","region":"Івано-Франківська область"},"geometry":{"type":"Point","coordinates":[25.07585,48.5635]}},
{"type":"Feature","properties":{"name":"Церква Покрову Пресвятої Богородиці","denomination":"ukrainian_greek_catholic","region":"Івано-Франківська область"},"geometry":{"type":"Point","coordinates":[25.09228,48.51512]}},
{"type":"Feature","properties":{"name":"Церква Вознесіння Господа Нашого Ісуса Христа","denomination":"ukrainian_greek_catholic","region":"Івано-Франківська область"},"geometry":{"type":"Point","coordinates":[24.69606,48.66011]}},
{"type":"Feature","properties":{"name":"Церква Усікновення Чесної Голови Пророка Івана Хрестителя","denomination":"ukrainian_greek_catholic","region":"Івано-Франківська область"},"geometry":{"type":"Point","coordinates":[24.59919,48.66296]}},
{"type":"Feature","properties":{"name":"Церква Усікновення Чесної Голови Пророка Івана Хрестителя","denomination":"ukrainian_greek_catholic","region":"Івано-Франківська область"},"geometry":{"type":"Point","coordinates":[24.59719,48.66324]}},
{"type":"Feature","properties":{"name":"Церква апостолів Петра і Павла","denomination":"ukrainian_greek_catholic","region":"Івано-Франківська область"},"geometry":{"type":"Point","coordinates":[24.58208,48.66621]}},
{"type":"Feature","properties":{"name":"Церква Преображення Господа Нашого Ісуса Христа","denomination":"ukrainian_greek_catholic","region":"Івано-Франківська область"},"geometry":{"type":"Point","coordinates":[24.53634,48.67657]}},
{"type":"Feature","properties":{"name":"Церква Успіння Пресвятої Богородиці","denomination":"ukrainian_greek_catholic","region":"Івано-Франківська область"},"geometry":{"type":"Point","coordinates":[24.30468,48.76876]}},
{"type":"Feature","properties":{"name":"Церква Володимира і Ольги","denomination":"ukrainian_greek_catholic","region":"Івано-Франківська область"},"geometry":{"type":"Point","coordinates":[24.65689,48.6166]}},
{"type":"Feature","properties":{"name":"Церква Трьох Святителів","denomination":"ukrainian_greek_catholic","region":"Івано-Франківська область"},"geometry":{"type":"Point","coordinates":[24.58749,48.63658]}},
{"type":"Feature","properties":{"name":"Церква Воздвиження Чесного Хреста","denomination":"ukrainian_greek_catholic","region":"Івано-Франківська область"},"geometry":{"type":"Point","coordinates":[24.56779,48.63547]}},
{"type":"Feature","properties":{"name":"Церква святого Миколая Чудотворця","denomination":"ukrainian_greek_catholic","region":"Івано-Франківська область"},"geometry":{"type":"Point","coordinates":[24.57809,48.60366]}},
{"type":"Feature","properties":{"name":"Церква святого священомученика Йосафата","denomination":"ukrainian_greek_catholic","region":"Івано-Франківська область"},"geometry":{"type":"Point","coordinates":[24.48088,48.61921]}},
{"type":"Feature","properties":{"name":"Церква Вознесіння ГНІХ","denomination":"ukrainian_greek_catholic","region":"Івано-Франківська область"},"geometry":{"type":"Point","coordinates":[24.51611,48.59369]}},
{"type":"Feature","properties":{"name":"Церква святої великомучениці Варвари","denomination":"ukrainian_greek_catholic","region":"Івано-Франківська область"},"geometry":{"type":"Point","coordinates":[24.42919,48.6173]}},
{"type":"Feature","properties":{"name":"Церква Пресвятої Трійці","denomination":"ukrainian_greek_catholic","region":"Івано-Франківська область"},"geometry":{"type":"Point","coordinates":[24.47941,48.57664]}},
{"type":"Feature","properties":{"name":"Церква святих верховних апостолів Петра і Павла","denomination":"ukrainian_greek_catholic","region":"Івано-Франківська область"},"geometry":{"type":"Point","coordinates":[24.43286,48.57219]}},
{"type":"Feature","properties":{"name":"Церква Пресвятої Трійці","denomination":"ukrainian_greek_catholic","region":"Івано-Франківська область"},"geometry":{"type":"Point","coordinates":[24.81342,48.32851]}},
{"type":"Feature","properties":{"name":"Церква святої Анни","denomination":"ukrainian_greek_catholic","region":"Київська область"},"geometry":{"type":"Point","coordinates":[30.38489,50.39201]}},
{"type":"Feature","properties":{"name":"Каплиця Царя Христа","denomination":"ukrainian_greek_catholic","region":"Луганська область"},"geometry":{"type":"Point","coordinates":[38.49174,48.93693]}},
{"type":"Feature","properties":{"name":"Церква Різдва Пресвятої Богородиці","denomination":"ukrainian_greek_catholic","region":"Луганська область"},"geometry":{"type":"Point","coordinates":[38.1996,49.0395]}},
{"type":"Feature","properties":{"name":"Церква Покрови Пресвятої Богородиці","denomination":"ukrainian_greek_catholic","region":"Львівська область"},"geometry":{"type":"Point","coordinates":[24.38725,50.57655]}},
{"type":"Feature","properties":{"name":"Церква Успіння Пресвятої Богородиці","denomination":"ukrainian_greek_catholic","region":"Львівська область"},"geometry":{"type":"Point","coordinates":[24.3094,50.55768]}},
{"type":"Feature","properties":{"name":"Церква Покрови Пресвятої Богородиці","denomination":"ukrainian_greek_catholic","region":"Львівська область"},"geometry":{"type":"Point","coordinates":[24.20751,50.59229]}},
{"type":"Feature","properties":{"name":"Церква Вознесіння Господнього","denomination":"ukrainian_greek_catholic","region":"Львівська область"},"geometry":{"type":"Point","coordinates":[24.3128,50.53993]}},
{"type":"Feature","properties":{"name":"Церква Перенесення мощей Св. Миколая","denomination":"ukrainian_greek_catholic","region":"Львівська область"},"geometry":{"type":"Point","coordinates":[24.19937,50.56]}},
{"type":"Feature","properties":{"name":"Церква Введення в храм Пресвятої Богородиці","denomination":"ukrainian_greek_catholic","region":"Львівська область"},"geometry":{"type":"Point","coordinates":[24.26578,50.52112]}},
{"type":"Feature","properties":{"name":"Церква святого Миколая","denomination":"ukrainian_greek_catholic","region":"Львівська область"},"geometry":{"type":"Point","coordinates":[24.11424,50.57486]}},
{"type":"Feature","properties":{"name":"Церква Успення Пресвятої Богородиці","denomination":"ukrainian_greek_catholic","region":"Львівська область"},"geometry":{"type":"Point","coordinates":[24.12196,50.56318]}},
{"type":"Feature","properties":{"name":"Церква святого Йосафата","denomination":"ukrainian_greek_catholic","region":"Львівська область"},"geometry":{"type":"Point","coordinates":[24.25216,50.50388]}},
{"type":"Feature","properties":{"name":"Церква свв. Косми і Дам’яна","denomination":"ukrainian_greek_catholic","region":"Львівська область"},"geometry":{"type":"Point","coordinates":[24.17267,50.52592]}},
{"type":"Feature","properties":{"name":"Церква святого Юрія","denomination":"ukrainian_greek_catholic","region":"Львівська область"},"geometry":{"type":"Point","coordinates":[24.13662,50.53907]}},
{"type":"Feature","properties":{"name":"Церква святого Архістратига Михаїла","denomination":"ukrainian_greek_catholic","region":"Львівська область"},"geometry":{"type":"Point","coordinates":[24.26392,50.48668]}},
{"type":"Feature","properties":{"name":"Церква Пресвятої Трійці","denomination":"ukrainian_greek_catholic","region":"Львівська область"},"geometry":{"type":"Point","coordinates":[24.21271,50.493]}},
{"type":"Feature","properties":{"name":"Церква Воздвиження Чесного і Животворящого Хреста Господнього","denomination":"ukrainian_greek_catholic","region":"Львівська область"},"geometry":{"type":"Point","coordinates":[24.11423,50.51682]}},
{"type":"Feature","properties":{"name":"Церква святого Миколая","denomination":"ukrainian_greek_catholic","region":"Львівська область"},"geometry":{"type":"Point","coordinates":[24.16933,50.49083]}},
{"type":"Feature","properties":{"name":"Церква Успення Пресвятої Богородиці","denomination":"ukrainian_greek_catholic","region":"Львівська область"},"geometry":{"type":"Point","coordinates":[24.17436,50.47394]}},
{"type":"Feature","properties":{"name":"Церква святого архістратига Михаїла","denomination":"ukrainian_greek_catholic","region":"Львівська область"},"geometry":{"type":"Point","coordinates":[24.58615,50.30949]}},
{"type":"Feature","properties":{"name":"Церква Введення в храм Пресвятої Богородиці","denomination":"ukrainian_greek_catholic","region":"Львівська область"},"geometry":{"type":"Point","coordinates":[24.14697,50.47375]}},
{"type":"Feature","properties":{"name":"Церква святого Архистратига Михаїла","denomination":"ukrainian_greek_catholic","region":"Львівська область"},"geometry":{"type":"Point","coordinates":[24.59879,50.30398]}},
{"type":"Feature","properties":{"name":"Церква Покрови Пресвятої Богородиці","denomination":"ukrainian_greek_catholic","region":"Львівська область"},"geometry":{"type":"Point","coordinates":[24.15391,50.46582]}},
{"type":"Feature","properties":{"name":"Церква Зіслання святого Духа","denomination":"ukrainian_greek_catholic","region":"Львівська область"},"geometry":{"type":"Point","coordinates":[24.56815,50.31053]}},
{"type":"Feature","properties":{"name":"Церква Положення Пояса Пресвятої Богородиці","denomination":"ukrainian_greek_catholic","region":"Львівська область"},"geometry":{"type":"Point","coordinates":[24.10101,50.46008]}},
{"type":"Feature","properties":{"name":"Церква святого апостола Луки","denomination":"ukrainian_greek_catholic","region":"Львівська область"},"geometry":{"type":"Point","coordinates":[24.06519,50.46699]}},
{"type":"Feature","properties":{"name":"Церква Різдва Пресвятої Богородиці","denomination":"ukrainian_greek_catholic","region":"Львівська область"},"geometry":{"type":"Point","coordinates":[24.02592,50.42985]}},
{"type":"Feature","properties":{"name":"Церква Всіх Святих Українського Народу","denomination":"ukrainian_greek_catholic","region":"Львівська область"},"geometry":{"type":"Point","coordinates":[24.54385,50.22095]}},
{"type":"Feature","properties":{"name":"Церква святих Косми і Дам’яна (с. Тур'я, Львівська область) ","denomination":"ukrainian_greek_catholic","region":"Львівська область"},"geometry":{"type":"Point","coordinates":[24.8486,50.08389]}},
{"type":"Feature","properties":{"name":"Церква Пресвятої Трійці","denomination":"ukrainian_greek_catholic","region":"Львівська область"},"geometry":{"type":"Point","coordinates":[24.51531,50.20678]}},
{"type":"Feature","properties":{"name":"Церква Вознесіння Господнього","denomination":"ukrainian_greek_catholic","region":"Львівська область"},"geometry":{"type":"Point","coordinates":[24.8495,50.03295]}},
{"type":"Feature","properties":{"name":"Церква Успення Пресвятої Богородиці","denomination":"ukrainian_greek_catholic","region":"Львівська область"},"geometry":{"type":"Point","coordinates":[24.69123,50.08423]}},
{"type":"Feature","properties":{"name":"Церква Пресвятої Євхаристії","denomination":"ukrainian_greek_catholic","region":"Львівська область"},"geometry":{"type":"Point","coordinates":[24.79201,50.01396]}},
{"type":"Feature","properties":{"name":"Церква Успіння Пресвятої Богородиці","denomination":"ukrainian_greek_catholic","region":"Львівська область"},"geometry":{"type":"Point","coordinates":[25.09656,49.87115]}},
{"type":"Feature","properties":{"name":"Церква Воздвиження Чесного Хреста","denomination":"ukrainian_greek_catholic","region":"Львівська область"},"geometry":{"type":"Point","coordinates":[23.8411,50.33867]}},
{"type":"Feature","properties":{"name":"Церква Різдва Пресвятої Богородиці","denomination":"ukrainian_greek_catholic","region":"Львівська область"},"geometry":{"type":"Point","coordinates":[23.93204,50.29998]}},
{"type":"Feature","properties":{"name":"Церква святих апостолів Петра і Павла","denomination":"ukrainian_greek_catholic","region":"Львівська область"},"geometry":{"type":"Point","coordinates":[25.05368,49.87167]}},
{"type":"Feature","properties":{"name":"Церква св. вмч. Параскевії П’ятниці","denomination":"ukrainian_greek_catholic","region":"Львівська область"},"geometry":{"type":"Point","coordinates":[23.79448,50.34497]}},
{"type":"Feature","properties":{"name":"Церква Успення Пресвятої Богородиці","denomination":"ukrainian_greek_catholic","region":"Львівська область"},"geometry":{"type":"Point","coordinates":[23.85102,50.30694]}},
{"type":"Feature","properties":{"name":"Церква святого Архистратига Михаїла","denomination":"ukrainian_greek_catholic","region":"Львівська область"},"geometry":{"type":"Point","coordinates":[25.05571,49.84454]}},
{"type":"Feature","properties":{"name":"Церква святого архистратига Михаїла","denomination":"ukrainian_greek_catholic","region":"Львівська область"},"geometry":{"type":"Point","coordinates":[24.71342,49.97401]}},
{"type":"Feature","properties":{"name":"Церква святого архистратига Михаїла","denomination":"ukrainian_greek_catholic","region":"Львівська область"},"geometry":{"type":"Point","coordinates":[23.99305,50.22788]}},
{"type":"Feature","properties":{"name":"Церква Пресвятої Тройці","denomination":"ukrainian_greek_catholic","region":"Львівська область"},"geometry":{"type":"Point","coordinates":[24.85548,49.89688]}},
{"type":"Feature","properties":{"name":"Церква святих апостолів Петра і Павла","denomination":"ukrainian_greek_catholic","region":"Львівська область"},"geometry":{"type":"Point","coordinates":[25.01993,49.82914]}},
{"type":"Feature","properties":{"name":"Церква святого Архистратига Михаїла","denomination":"ukrainian_greek_catholic","region":"Львівська область"},"geometry":{"type":"Point","coordinates":[24.79831,49.91252]}},
{"type":"Feature","properties":{"name":"Церква святого архистратига Михаїла","denomination":"ukrainian_greek_catholic","region":"Львівська область"},"geometry":{"type":"Point","coordinates":[23.94775,50.23333]}},
{"type":"Feature","properties":{"name":"Церква святих апостолів Петра і Павла","denomination":"ukrainian_greek_catholic","region":"Львівська область"},"geometry":{"type":"Point","coordinates":[25.08024,49.78983]}},
{"type":"Feature","properties":{"name":"Церква Успення Пресвятої Богородиці","denomination":"ukrainian_greek_catholic","region":"Львівська область"},"geometry":{"type":"Point","coordinates":[25.0395,49.80211]}},
{"type":"Feature","properties":{"name":"Церква святого великомученика Димитрія","denomination":"ukrainian_greek_catholic","region":"Львівська область"},"geometry":{"type":"Point","coordinates":[24.97221,49.82708]}},
{"type":"Feature","properties":{"name":"Церква Різдва Пресвятої Богородиці","denomination":"ukrainian_greek_catholic","region":"Львівська область"},"geometry":{"type":"Point","coordinates":[24.98838,49.8173]}},
{"type":"Feature","properties":{"name":"Церква Різдва Пресвятої Богородиці","denomination":"ukrainian_greek_catholic","region":"Львівська область"},"geometry":{"type":"Point","coordinates":[24.55813,49.98268]}},
{"type":"Feature","properties":{"name":"Церква свв. Володимира і Ольги","denomination":"ukrainian_greek_catholic","region":"Львівська область"},"geometry":{"type":"Point","coordinates":[24.94096,49.82194]}},
{"type":"Feature","properties":{"name":"Церква Покрови Пресвятої Богородиці","denomination":"ukrainian_greek_catholic","region":"Львівська область"},"geometry":{"type":"Point","coordinates":[24.98642,49.79765]}},
{"type":"Feature","properties":{"name":"Церква святого Миколая","denomination":"ukrainian_greek_catholic","region":"Львівська область"},"geometry":{"type":"Point","coordinates":[24.78294,49.87475]}},
{"type":"Feature","properties":{"name":"Церква святого великомученика Димитрія","denomination":"ukrainian_greek_catholic","region":"Львівська область"},"geometry":{"type":"Point","coordinates":[25.0184,49.78143]}},
{"type":"Feature","properties":{"name":"Церква святого архістратига Михаїла","denomination":"ukrainian_greek_catholic","region":"Львівська область"},"geometry":{"type":"Point","coordinates":[25.0551,49.76366]}},
{"type":"Feature","properties":{"name":"Церква Різдва Пресвятої Богородиці","denomination":"ukrainian_greek_catholic","region":"Львівська область"},"geometry":{"type":"Point","coordinates":[24.83078,49.85067]}},
{"type":"Feature","properties":{"name":"Церква Різдва Святого Івана Христителя","denomination":"ukrainian_greek_catholic","region":"Львівська область"},"geometry":{"type":"Point","coordinates":[24.92303,49.80957]}},
{"type":"Feature","properties":{"name":"Церква Покрови Пресвятої Богородиці","denomination":"ukrainian_greek_catholic","region":"Львівська область"},"geometry":{"type":"Point","coordinates":[24.85553,49.83383]}},
{"type":"Feature","properties":{"name":"Церква Святої священномучениці Параскеви","denomination":"ukrainian_greek_catholic","region":"Львівська область"},"geometry":{"type":"Point","coordinates":[24.04417,50.13784]}},
{"type":"Feature","properties":{"name":"Церква святого великомученика Юрія","denomination":"ukrainian_greek_catholic","region":"Львівська область"},"geometry":{"type":"Point","coordinates":[24.74893,49.86524]}},
{"type":"Feature","properties":{"name":"Церква Успіння Пресвятої Богородиці","denomination":"ukrainian_greek_catholic","region":"Львівська область"},"geometry":{"type":"Point","coordinates":[24.93996,49.78813]}},
{"type":"Feature","properties":{"name":"Церква Різдва Пресвятої Богородиці","denomination":"ukrainian_greek_catholic","region":"Львівська область"},"geometry":{"type":"Point","coordinates":[24.91133,49.79727]}},
{"type":"Feature","properties":{"name":"Церква Перенесення Мощей Святого Миколая Чудотворця","denomination":"ukrainian_greek_catholic","region":"Львівська область"},"geometry":{"type":"Point","coordinates":[24.98125,49.76788]}},
{"type":"Feature","properties":{"name":"Церква Вознесіння ГНІХ","denomination":"ukrainian_greek_catholic","region":"Львівська область"},"geometry":{"type":"Point","coordinates":[24.87507,49.80681]}},
{"type":"Feature","properties":{"name":"Церква Успення Пресвятої Богородиці","denomination":"ukrainian_greek_catholic","region":"Львівська область"},"geometry":{"type":"Point","coordinates":[24.83015,49.82283]}},
{"type":"Feature","properties":{"name":"Церква Преображення ГНІХ","denomination":"ukrainian_greek_catholic","region":"Львівська область"},"geometry":{"type":"Point","coordinates":[24.84479,49.80546]}},
{"type":"Feature","properties":{"name":"Церква Різдва Пресвятої Богородиці","denomination":"ukrainian_greek_catholic","region":"Львівська область"},"geometry":{"type":"Point","coordinates":[23.85926,50.17896]}},
{"type":"Feature","properties":{"name":"Церква святого Архистратига Михаїла","denomination":"ukrainian_greek_catholic","region":"Львівська область"},"geometry":{"type":"Point","coordinates":[24.43082,49.96298]}},
{"type":"Feature","properties":{"name":"Церква святого великомученика Димитрія Солунського","denomination":"ukrainian_greek_catholic","region":"Львівська область"},"geometry":{"type":"Point","coordinates":[24.30282,50.00779]}},
{"type":"Feature","properties":{"name":"Церква Преображення Господнього","denomination":"ukrainian_greek_catholic","region":"Львівська область"},"geometry":{"type":"Point","coordinates":[24.55733,49.90905]}},
{"type":"Feature","properties":{"name":"Церква Благовіщення Пресвятої Богородиці","denomination":"ukrainian_greek_catholic","region":"Львівська область"},"geometry":{"type":"Point","coordinates":[23.71279,50.22369]}},
{"type":"Feature","properties":{"name":"Церква Вознесіння Христового","denomination":"ukrainian_greek_catholic","region":"Львівська область"},"geometry":{"type":"Point","coordinates":[24.69328,49.85282]}},
{"type":"Feature","properties":{"name":"Церква святих жінок-мироносиць","denomination":"ukrainian_greek_catholic","region":"Львівська область"},"geometry":{"type":"Point","coordinates":[24.88249,49.77855]}},
{"type":"Feature","properties":{"name":"Церква святого великомучениці Параскевії П’ятниці","denomination":"ukrainian_greek_catholic","region":"Львівська область"},"geometry":{"type":"Point","coordinates":[24.8281,49.79343]}},
{"type":"Feature","properties":{"name":"Церква Преображення Господнього","denomination":"ukrainian_greek_catholic","region":"Львівська область"},"geometry":{"type":"Point","coordinates":[23.61279,50.24049]}},
{"type":"Feature","properties":{"name":"Церква Воздвиження Чесного Хреста","denomination":"ukrainian_greek_catholic","region":"Львівська область"},"geometry":{"type":"Point","coordinates":[24.974,49.71659]}},
{"type":"Feature","properties":{"name":"Церква Безсрібників і чудотворців Косми і Дам'яна","denomination":"ukrainian_greek_catholic","region":"Львівська область"},"geometry":{"type":"Point","coordinates":[24.42405,49.92695]}},
{"type":"Feature","properties":{"name":"Церква Воскресіння Господнього","denomination":"ukrainian_greek_catholic","region":"Львівська область"},"geometry":{"type":"Point","coordinates":[23.69563,50.1969]}},
{"type":"Feature","properties":{"name":"Церква Воскресіння Христового","denomination":"ukrainian_greek_catholic","region":"Львівська область"},"geometry":{"type":"Point","coordinates":[24.36897,49.93209]}},
{"type":"Feature","properties":{"name":"Церква Святих безсрібників Косми і Дам’яна","denomination":"ukrainian_greek_catholic","region":"Львівська область"},"geometry":{"type":"Point","coordinates":[24.97717,49.69283]}},
{"type":"Feature","properties":{"name":"Церква святої Покрови","denomination":"ukrainian_greek_catholic","region":"Львівська область"},"geometry":{"type":"Point","coordinates":[23.66038,50.19141]}},
{"type":"Feature","properties":{"name":"Церква святого Дмитрія","denomination":"ukrainian_greek_catholic","region":"Львівська область"},"geometry":{"type":"Point","coordinates":[24.88416,49.7234]}},
{"type":"Feature","properties":{"name":"Церква Різдва Пресвятої Богородиці","denomination":"ukrainian_greek_catholic","region":"Львівська область"},"geometry":{"type":"Point","coordinates":[24.9417,49.6977]}},
{"type":"Feature","properties":{"name":"Церква Успіння Пресвятої Богородиці","denomination":"ukrainian_greek_catholic","region":"Львівська область"},"geometry":{"type":"Point","coordinates":[24.95923,49.68138]}},
{"type":"Feature","properties":{"name":"Церква Успіння Пресвятої Богородиці","denomination":"ukrainian_greek_catholic","region":"Львівська область"},"geometry":{"type":"Point","coordinates":[23.76541,50.12696]}},
{"type":"Feature","properties":{"name":"Церква Преображення ГНІХ","denomination":"ukrainian_greek_catholic","region":"Львівська область"},"geometry":{"type":"Point","coordinates":[24.89701,49.69324]}},
{"type":"Feature","properties":{"name":"Церква святих апостолів Петра і Павла","denomination":"ukrainian_greek_catholic","region":"Львівська область"},"geometry":{"type":"Point","coordinates":[24.69041,49.77184]}},
{"type":"Feature","properties":{"name":"Церква св. Івана Богослова","denomination":"ukrainian_greek_catholic","region":"Львівська область"},"geometry":{"type":"Point","coordinates":[24.93749,49.66823]}},
{"type":"Feature","properties":{"name":"Церква Воздвиження Чесного Хреста","denomination":"ukrainian_greek_catholic","region":"Львівська область"},"geometry":{"type":"Point","coordinates":[23.49073,50.21525]}},
{"type":"Feature","properties":{"name":"Церква Пресвятої Трійці","denomination":"ukrainian_greek_catholic","region":"Львівська область"},"geometry":{"type":"Point","coordinates":[24.72118,49.75052]}},
{"type":"Feature","properties":{"name":"Церква святого Духа","denomination":"ukrainian_greek_catholic","region":"Львівська область"},"geometry":{"type":"Point","coordinates":[23.71167,50.12926]}},
{"type":"Feature","properties":{"name":"Церква св. Архистратига Михаїла","denomination":"ukrainian_greek_catholic","region":"Львівська область"},"geometry":{"type":"Point","coordinates":[24.59147,49.78667]}},
{"type":"Feature","properties":{"name":"Церква святого великомученика Юрія","denomination":"ukrainian_greek_catholic","region":"Львівська область"},"geometry":{"type":"Point","coordinates":[23.70205,50.10957]}},
{"type":"Feature","properties":{"name":"Церква Успення Пресвятої Богородиці","denomination":"ukrainian_greek_catholic","region":"Львівська область"},"geometry":{"type":"Point","coordinates":[23.56407,50.15547]}},
{"type":"Feature","properties":{"name":"Церква святого пророка Іллі","denomination":"ukrainian_greek_catholic","region":"Львівська область"},"geometry":{"type":"Point","coordinates":[24.46902,49.81682]}},
{"type":"Feature","properties":{"name":"Церква Собору Пресвятої Богородиці","denomination":"ukrainian_greek_catholic","region":"Львівська область"},"geometry":{"type":"Point","coordinates":[24.80416,49.68584]}},
{"type":"Feature","properties":{"name":"Церква святого архістратига Михаїла","denomination":"ukrainian_greek_catholic","region":"Львівська область"},"geometry":{"type":"Point","coordinates":[24.75083,49.70083]}},
{"type":"Feature","properties":{"name":"Церква Івана Богослова","denomination":"ukrainian_greek_catholic","region":"Львівська область"},"geometry":{"type":"Point","coordinates":[24.59905,49.75948]}},
{"type":"Feature","properties":{"name":"Церква святої Ольги","denomination":"ukrainian_greek_catholic","region":"Львівська область"},"geometry":{"type":"Point","coordinates":[24.66895,49.73007]}},
{"type":"Feature","properties":{"name":"Церква Пресвятої Тройці","denomination":"ukrainian_greek_catholic","region":"Львівська область"},"geometry":{"type":"Point","coordinates":[24.8147,49.66208]}},
{"type":"Feature","properties":{"name":"Церква Пресвятої Тройці","denomination":"ukrainian_greek_catholic","region":"Львівська область"},"geometry":{"type":"Point","coordinates":[24.27742,49.86344]}},
{"type":"Feature","properties":{"name":"Церква Собору Пресвятої Богородиці","denomination":"ukrainian_greek_catholic","region":"Львівська область"},"geometry":{"type":"Point","coordinates":[24.33026,49.84166]}},
{"type":"Feature","properties":{"name":"Церква Зіслання Святого Духа","denomination":"ukrainian_greek_catholic","region":"Львівська область"},"geometry":{"type":"Point","coordinates":[24.3879,49.81369]}},
{"type":"Feature","properties":{"name":"Церква Преображення ГНІХ","denomination":"ukrainian_greek_catholic","region":"Львівська область"},"geometry":{"type":"Point","coordinates":[23.46466,50.15637]}},
{"type":"Feature","properties":{"name":"Церква святого Миколая","denomination":"ukrainian_greek_catholic","region":"Львівська область"},"geometry":{"type":"Point","coordinates":[24.56002,49.74126]}},
{"type":"Feature","properties":{"name":"Церква Покрови Пресвятої Богородиці","denomination":"ukrainian_greek_catholic","region":"Львівська область"},"geometry":{"type":"Point","coordinates":[24.71816,49.67972]}},
{"type":"Feature","properties":{"name":"Церква Собору Пресвятої Богородиці","denomination":"ukrainian_greek_catholic","region":"Львівська область"},"geometry":{"type":"Point","coordinates":[24.28331,49.84582]}},
{"type":"Feature","properties":{"name":"Церква Преподобного Симеона","denomination":"ukrainian_greek_catholic","region":"Львівська область"},"geometry":{"type":"Point","coordinates":[24.65054,49.69632]}},
{"type":"Feature","properties":{"name":"Церква святого Миколая","denomination":"ukrainian_greek_catholic","region":"Львівська область"},"geometry":{"type":"Point","coordinates":[24.34092,49.81466]}},
{"type":"Feature","properties":{"name":"Церква Покрову Пресвятої Богородиці","denomination":"ukrainian_greek_catholic","region":"Львівська область"},"geometry":{"type":"Point","coordinates":[24.16958,49.87329]}},
{"type":"Feature","properties":{"name":"Церква Покрови Пресвятої Богородиці","denomination":"ukrainian_greek_catholic","region":"Львівська область"},"geometry":{"type":"Point","coordinates":[24.49269,49.74896]}},
{"type":"Feature","properties":{"name":"Церква Преображення Господнього","denomination":"ukrainian_greek_catholic","region":"Львівська область"},"geometry":{"type":"Point","coordinates":[23.46213,50.13343]}},
{"type":"Feature","properties":{"name":"Церква Покрову Пресвятої Богородиці","denomination":"ukrainian_greek_catholic","region":"Львівська область"},"geometry":{"type":"Point","coordinates":[24.48591,49.75055]}},
{"type":"Feature","properties":{"name":"Церква Вознесіння Христового","denomination":"ukrainian_greek_catholic","region":"Львівська область"},"geometry":{"type":"Point","coordinates":[24.58566,49.71088]}},
{"type":"Feature","properties":{"name":"Церква Благовіщення Пресвятої Богородиці","denomination":"ukrainian_greek_catholic","region":"Львівська область"},"geometry":{"type":"Point","coordinates":[24.42932,49.76935]}},
{"type":"Feature","properties":{"name":"Церква Різдва Івана Хрестителя (м. Дубляни, Львівська область) ","denomination":"ukrainian_greek_catholic","region":"Львівська область"},"geometry":{"type":"Point","coordinates":[24.07378,49.90262]}},
{"type":"Feature","properties":{"name":"Церква Покрову Пресвятої Богородиці","denomination":"ukrainian_greek_catholic","region":"Львівська область"},"geometry":{"type":"Point","coordinates":[24.30483,49.81466]}},
{"type":"Feature","properties":{"name":"Церква Пресвятої Тройці","denomination":"ukrainian_greek_catholic","region":"Львівська область"},"geometry":{"type":"Point","coordinates":[24.33897,49.80099]}},
{"type":"Feature","properties":{"name":"Церква Усікновення Голови Івана Христителя","denomination":"ukrainian_greek_catholic","region":"Львівська область"},"geometry":{"type":"Point","coordinates":[24.16239,49.86674]}},
{"type":"Feature","properties":{"name":"Церква Богоявлення ГНІХ","denomination":"ukrainian_greek_catholic","region":"Львівська область"},"geometry":{"type":"Point","coordinates":[24.13011,49.8734]}},
{"type":"Feature","properties":{"name":"Церква Різдва Пресвятої Богородиці","denomination":"ukrainian_greek_catholic","region":"Львівська область"},"geometry":{"type":"Point","coordinates":[24.37127,49.77772]}},
{"type":"Feature","properties":{"name":"Церква Різдва Пресвятої Богородиці","denomination":"ukrainian_greek_catholic","region":"Львівська область"},"geometry":{"type":"Point","coordinates":[24.22359,49.83112]}},
{"type":"Feature","properties":{"name":"Церква Введення в Храм Пресвятої Богородиці","denomination":"ukrainian_greek_catholic","region":"Львівська область"},"geometry":{"type":"Point","coordinates":[24.09621,49.87752]}},
{"type":"Feature","properties":{"name":"Церква Покрови Пресвятої Богородиці","denomination":"ukrainian_greek_catholic","region":"Львівська область"},"geometry":{"type":"Point","coordinates":[23.38525,50.13685]}},
{"type":"Feature","properties":{"name":"Церква Собору Пресвятої Богородиці","denomination":"ukrainian_greek_catholic","region":"Львівська область"},"geometry":{"type":"Point","coordinates":[23.90861,49.94103]}},
{"type":"Feature","properties":{"name":"Церква святого архістратига Михаїла","denomination":"ukrainian_greek_catholic","region":"Львівська область"},"geometry":{"type":"Point","coordinates":[24.76833,49.60964]}},
{"type":"Feature","properties":{"name":"Церква святого Миколая","denomination":"ukrainian_greek_catholic","region":"Львівська область"},"geometry":{"type":"Point","coordinates":[24.14904,49.84461]}},
{"type":"Feature","properties":{"name":"Церква Святого Богоявлення Господнього","denomination":"ukrainian_greek_catholic","region":"Львівська область"},"geometry":{"type":"Point","coordinates":[24.44279,49.73146]}},
{"type":"Feature","properties":{"name":"Церква Покрову Пресвятої Богородиці","denomination":"ukrainian_greek_catholic","region":"Львівська область"},"geometry":{"type":"Point","coordinates":[23.81806,49.96562]}},
{"type":"Feature","properties":{"name":"Церква святого Архистратига Михаїла","denomination":"ukrainian_greek_catholic","region":"Львівська область"},"geometry":{"type":"Point","coordinates":[24.48838,49.71043]}},
{"type":"Feature","properties":{"name":"Церква святого пророка Іллі","denomination":"ukrainian_greek_catholic","region":"Львівська область"},"geometry":{"type":"Point","coordinates":[24.59729,49.66373]}},
{"type":"Feature","properties":{"name":"Церква Введення в храм Пресвятої Богородиці","denomination":"ukrainian_greek_catholic","region":"Львівська область"},"geometry":{"type":"Point","coordinates":[24.25325,49.78923]}},
{"type":"Feature","properties":{"name":"Церква Різдва Пресвятої Богородиці","denomination":"ukrainian_greek_catholic","region":"Львівська область"},"geometry":{"type":"Point","coordinates":[23.95352,49.90199]}},
{"type":"Feature","properties":{"name":"Церква святого Івана Хрестителя","denomination":"ukrainian_greek_catholic","region":"Львівська область"},"geometry":{"type":"Point","coordinates":[24.52904,49.6823]}},
{"type":"Feature","properties":{"name":"Церква святого Юрія","denomination":"ukrainian_greek_catholic","region":"Львівська область"},"geometry":{"type":"Point","coordinates":[24.62589,49.64183]}},
{"type":"Feature","properties":{"name":"Церква святої Параскеви","denomination":"ukrainian_greek_catholic","region":"Львівська область"},"geometry":{"type":"Point","coordinates":[24.68075,49.6154]}},
{"type":"Feature","properties":{"name":"Церква Вознесіння ГНІХ","denomination":"ukrainian_greek_catholic","region":"Львівська область"},"geometry":{"type":"Point","coordinates":[24.05852,49.85122]}},
{"type":"Feature","properties":{"name":"Церква Перенесення мощей святого Миколая","denomination":"ukrainian_greek_catholic","region":"Львівська область"},"geometry":{"type":"Point","coordinates":[24.65985,49.61898]}},
{"type":"Feature","properties":{"name":"Церква святих великомучеників Бориса і Гліба","denomination":"ukrainian_greek_catholic","region":"Львівська область"},"geometry":{"type":"Point","coordinates":[24.3661,49.73265]}},
{"type":"Feature","properties":{"name":"Церква святого Миколая","denomination":"ukrainian_greek_catholic","region":"Львівська область"},"geometry":{"type":"Point","coordinates":[23.76435,49.95332]}},
{"type":"Feature","properties":{"name":"Церква святого Миколая","denomination":"ukrainian_greek_catholic","region":"Львівська область"},"geometry":{"type":"Point","coordinates":[24.1755,49.79783]}},
{"type":"Feature","properties":{"name":"Церква Покрови Пресвятої Богородиці","denomination":"ukrainian_greek_catholic","region":"Львівська область"},"geometry":{"type":"Point","coordinates":[24.73814,49.58036]}},
{"type":"Feature","properties":{"name":"Церква Різдва Івана Хрестителя","denomination":"ukrainian_greek_catholic","region":"Львівська область"},"geometry":{"type":"Point","coordinates":[24.62065,49.62437]}},
{"type":"Feature","properties":{"name":"Церква Покрову Пресвятої Богородиці","denomination":"ukrainian_greek_catholic","region":"Львівська область"},"geometry":{"type":"Point","coordinates":[24.06718,49.83636]}},
{"type":"Feature","properties":{"name":"Церква святого Миколая","denomination":"ukrainian_greek_catholic","region":"Львівська область"},"geometry":{"type":"Point","coordinates":[24.41145,49.70219]}},
{"type":"Feature","properties":{"name":"Церква святого Миколая","denomination":"ukrainian_greek_catholic","region":"Львівська область"},"geometry":{"type":"Point","coordinates":[24.3947,49.70615]}},
{"type":"Feature","properties":{"name":"Церква святих апостолів Петра і Павла","denomination":"ukrainian_greek_catholic","region":"Львівська область"},"geometry":{"type":"Point","coordinates":[24.60445,49.62072]}},
{"type":"Feature","properties":{"name":"Церква Преображення Господнього","denomination":"ukrainian_greek_catholic","region":"Львівська область"},"geometry":{"type":"Point","coordinates":[24.50275,49.65026]}},
{"type":"Feature","properties":{"name":"Церква Зіслання Святого Духа","denomination":"ukrainian_greek_catholic","region":"Львівська область"},"geometry":{"type":"Point","coordinates":[24.14196,49.78824]}},
{"type":"Feature","properties":{"name":"Церква святих Володимира і Ольги","denomination":"ukrainian_greek_catholic","region":"Львівська область"},"geometry":{"type":"Point","coordinates":[24.68237,49.57919]}},
{"type":"Feature","properties":{"name":"Церква святого Андрія Первозванного","denomination":"ukrainian_greek_catholic","region":"Львівська область"},"geometry":{"type":"Point","coordinates":[24.43322,49.67552]}},
{"type":"Feature","properties":{"name":"Церква святого Великомученика Димитрія","denomination":"ukrainian_greek_catholic","region":"Львівська область"},"geometry":{"type":"Point","coordinates":[24.15938,49.77669]}},
{"type":"Feature","properties":{"name":"Церква святого архистратига Михайла","denomination":"ukrainian_greek_catholic","region":"Львівська область"},"geometry":{"type":"Point","coordinates":[24.34732,49.70484]}},
{"type":"Feature","properties":{"name":"Церква Преподобної Параскевії","denomination":"ukrainian_greek_catholic","region":"Львівська область"},"geometry":{"type":"Point","coordinates":[24.5732,49.61671]}},
{"type":"Feature","properties":{"name":"Церква Воскресіння Господнього","denomination":"ukrainian_greek_catholic","region":"Львівська область"},"geometry":{"type":"Point","coordinates":[24.61864,49.59896]}},
{"type":"Feature","properties":{"name":"Церква Різдва Пресвятої Богородиці","denomination":"ukrainian_greek_catholic","region":"Львівська область"},"geometry":{"type":"Point","coordinates":[23.42672,50.04669]}},
{"type":"Feature","properties":{"name":"Церква Різдва Пресвятої Богородиці","denomination":"ukrainian_greek_catholic","region":"Львівська область"},"geometry":{"type":"Point","coordinates":[23.38325,50.06215]}},
{"type":"Feature","properties":{"name":"Церква Непорочного Зачаття Пресвятої Богородиці","denomination":"ukrainian_greek_catholic","region":"Львівська область"},"geometry":{"type":"Point","coordinates":[23.35253,50.07208]}},
{"type":"Feature","properties":{"name":"Церква святого Архистратига Михаїла","denomination":"ukrainian_greek_catholic","region":"Львівська область"},"geometry":{"type":"Point","coordinates":[23.29391,50.09281]}},
{"type":"Feature","properties":{"name":"Церква святого Миколая","denomination":"ukrainian_greek_catholic","region":"Львівська область"},"geometry":{"type":"Point","coordinates":[24.24413,49.74048]}},
{"type":"Feature","properties":{"name":"Церква святого Симеона Стовпника","denomination":"ukrainian_greek_catholic","region":"Львівська область"},"geometry":{"type":"Point","coordinates":[24.29278,49.71362]}},
{"type":"Feature","properties":{"name":"Церква святого Миколая","denomination":"ukrainian_greek_catholic","region":"Львівська область"},"geometry":{"type":"Point","coordinates":[24.29278,49.71362]}},
{"type":"Feature","properties":{"name":"Церква Представлення святого Івана Богослова","denomination":"ukrainian_greek_catholic","region":"Львівська область"},"geometry":{"type":"Point","coordinates":[24.59692,49.59457]}},
{"type":"Feature","properties":{"name":"Церква Воздвиження Чесного Хреста","denomination":"ukrainian_greek_catholic","region":"Львівська область"},"geometry":{"type":"Point","coordinates":[24.33036,49.69417]}},
{"type":"Feature","properties":{"name":"Церква Благовіщення Пресвятої Богородиці у Патріаршому Домі","denomination":"ukrainian_greek_catholic","region":"Львівська область"},"geometry":{"type":"Point","coordinates":[24.03622,49.80372]}},
{"type":"Feature","properties":{"name":"Церква Введення в Храм Пресвятої Богородиці","denomination":"ukrainian_greek_catholic","region":"Львівська область"},"geometry":{"type":"Point","coordinates":[24.49069,49.62866]}},
{"type":"Feature","properties":{"name":"Церква Перенесення мощей Святого Миколая","denomination":"ukrainian_greek_catholic","region":"Львівська область"},"geometry":{"type":"Point","coordinates":[24.67653,49.55516]}},
{"type":"Feature","properties":{"name":"Храм Святого Духа","denomination":"ukrainian_greek_catholic","region":"Львівська область"},"geometry":{"type":"Point","coordinates":[24.03424,49.80181]}},
{"type":"Feature","properties":{"name":"Церква Різдва Пресвятої Богородиці","denomination":"ukrainian_greek_catholic","region":"Львівська область"},"geometry":{"type":"Point","coordinates":[24.58118,49.58379]}},
{"type":"Feature","properties":{"name":"Церква Собору святого Івана Христителя","denomination":"ukrainian_greek_catholic","region":"Львівська область"},"geometry":{"type":"Point","coordinates":[23.42736,50.01619]}},
{"type":"Feature","properties":{"name":"Церква Преображення Господнього","denomination":"ukrainian_greek_catholic","region":"Львівська область"},"geometry":{"type":"Point","coordinates":[24.53476,49.59957]}},
{"type":"Feature","properties":{"name":"Церква святої великомучениці Параскевії","denomination":"ukrainian_greek_catholic","region":"Львівська область"},"geometry":{"type":"Point","coordinates":[24.60572,49.56786]}},
{"type":"Feature","properties":{"name":"Церква Різдва святого Івана Христителя","denomination":"ukrainian_greek_catholic","region":"Львівська область"},"geometry":{"type":"Point","coordinates":[23.35066,50.03877]}},
{"type":"Feature","properties":{"name":"Церква Різдва Пресвятої Богородиці","denomination":"ukrainian_greek_catholic","region":"Львівська область"},"geometry":{"type":"Point","coordinates":[24.14191,49.74353]}},
{"type":"Feature","properties":{"name":"Церква Різдва Пресвятої Богородиці","denomination":"ukrainian_greek_catholic","region":"Львівська область"},"geometry":{"type":"Point","coordinates":[23.81533,49.86586]}},
{"type":"Feature","properties":{"name":"Церква святого Юра","denomination":"ukrainian_greek_catholic","region":"Львівська область"},"geometry":{"type":"Point","coordinates":[24.27126,49.6927]}},
{"type":"Feature","properties":{"name":"Церква святого Івана Хрестителя","denomination":"ukrainian_greek_catholic","region":"Львівська область"},"geometry":{"type":"Point","coordinates":[24.6514,49.5423]}},
{"type":"Feature","properties":{"name":"Церква Богоявлення Господнього","denomination":"ukrainian_greek_catholic","region":"Львівська область"},"geometry":{"type":"Point","coordinates":[24.65181,49.54199]}},
{"type":"Feature","properties":{"name":"Церква Покрови Пресвятої Богородиці","denomination":"ukrainian_greek_catholic","region":"Львівська область"},"geometry":{"type":"Point","coordinates":[24.44489,49.62242]}},
{"type":"Feature","properties":{"name":"Церква святого Івана Хрестителя","denomination":"ukrainian_greek_catholic","region":"Львівська область"},"geometry":{"type":"Point","coordinates":[24.44486,49.62242]}},
{"type":"Feature","properties":{"name":"Церква святого Юрія","denomination":"ukrainian_greek_catholic","region":"Львівська область"},"geometry":{"type":"Point","coordinates":[23.54035,49.95741]}},
{"type":"Feature","properties":{"name":"Церква Покрови Пресвятої Богородиці","denomination":"ukrainian_greek_catholic","region":"Львівська область"},"geometry":{"type":"Point","coordinates":[24.51497,49.58828]}},
{"type":"Feature","properties":{"name":"Церква Усікновення голови Івана Хрестителя","denomination":"ukrainian_greek_catholic","region":"Львівська область"},"geometry":{"type":"Point","coordinates":[24.17358,49.71921]}},
{"type":"Feature","properties":{"name":"Церква Покрови Пресвятої Богородицi","denomination":"ukrainian_greek_catholic","region":"Львівська область"},"geometry":{"type":"Point","coordinates":[23.28145,50.04849]}},
{"type":"Feature","properties":{"name":"Церква святого архистратига Михаїла","denomination":"ukrainian_greek_catholic","region":"Львівська область"},"geometry":{"type":"Point","coordinates":[24.53091,49.5786]}},
{"type":"Feature","properties":{"name":"Церква Собору Пресвятої Богородиці","denomination":"ukrainian_greek_catholic","region":"Львівська область"},"geometry":{"type":"Point","coordinates":[24.19395,49.70614]}},
{"type":"Feature","properties":{"name":"Церква святого Миколая","denomination":"ukrainian_greek_catholic","region":"Львівська область"},"geometry":{"type":"Point","coordinates":[23.53978,49.95012]}},
{"type":"Feature","properties":{"name":"Церква Преподобної Параскевії","denomination":"ukrainian_greek_catholic","region":"Львівська область"},"geometry":{"type":"Point","coordinates":[24.69071,49.51353]}},
{"type":"Feature","properties":{"name":"Церква преподобної Параскевії","denomination":"ukrainian_greek_catholic","region":"Львівська область"},"geometry":{"type":"Point","coordinates":[23.54139,49.94821]}},
{"type":"Feature","properties":{"name":"Церква Стрітення ГНІХ","denomination":"ukrainian_greek_catholic","region":"Львівська область"},"geometry":{"type":"Point","coordinates":[24.15159,49.71847]}},
{"type":"Feature","properties":{"name":"Церква Пресвятої Богородиці","denomination":"ukrainian_greek_catholic","region":"Львівська область"},"geometry":{"type":"Point","coordinates":[24.35749,49.63632]}},
{"type":"Feature","properties":{"name":"Церква Покрови Пресвятої Богородиці","denomination":"ukrainian_greek_catholic","region":"Львівська область"},"geometry":{"type":"Point","coordinates":[23.41985,49.9862]}},
{"type":"Feature","properties":{"name":"Церква святого Миколая","denomination":"ukrainian_greek_catholic","region":"Львівська область"},"geometry":{"type":"Point","coordinates":[23.46428,49.96809]}},
{"type":"Feature","properties":{"name":"Церква Успення Пресвятої Богородиці","denomination":"ukrainian_greek_catholic","region":"Львівська область"},"geometry":{"type":"Point","coordinates":[23.23487,50.04486]}},
{"type":"Feature","properties":{"name":"Церква святого Архистратига Михаїла","denomination":"ukrainian_greek_catholic","region":"Львівська область"},"geometry":{"type":"Point","coordinates":[24.59787,49.53324]}},
{"type":"Feature","properties":{"name":"Церква Воздвиження Чесного та Животворящого Хреста Господнього","denomination":"ukrainian_greek_catholic","region":"Львівська область"},"geometry":{"type":"Point","coordinates":[24.5212,49.56244]}},
{"type":"Feature","properties":{"name":"Церква святого Івана Богослова","denomination":"ukrainian_greek_catholic","region":"Львівська область"},"geometry":{"type":"Point","coordinates":[24.32854,49.63687]}},
{"type":"Feature","properties":{"name":"Церква святого Миколая","denomination":"ukrainian_greek_catholic","region":"Львівська область"},"geometry":{"type":"Point","coordinates":[24.37458,49.61827]}},
{"type":"Feature","properties":{"name":"Церква Різдва Пресвятої Богородиці","denomination":"ukrainian_greek_catholic","region":"Львівська область"},"geometry":{"type":"Point","coordinates":[23.85489,49.81304]}},
{"type":"Feature","properties":{"name":"Церква преподобної Параскеви","denomination":"ukrainian_greek_catholic","region":"Львівська область"},"geometry":{"type":"Point","coordinates":[23.42537,49.96826]}},
{"type":"Feature","properties":{"name":"Церква Благовіщення Пресвятої Богородиці","denomination":"ukrainian_greek_catholic","region":"Львівська область"},"geometry":{"type":"Point","coordinates":[24.47143,49.57507]}},
{"type":"Feature","properties":{"name":"Церква апостолів Петра і Павла","denomination":"ukrainian_greek_catholic","region":"Львівська область"},"geometry":{"type":"Point","coordinates":[24.18724,49.68034]}},
{"type":"Feature","properties":{"name":"Церква Воздвиження Чесного Хреста","denomination":"ukrainian_greek_catholic","region":"Львівська область"},"geometry":{"type":"Point","coordinates":[24.18723,49.68016]}},
{"type":"Feature","properties":{"name":"Церква святого Миколая","denomination":"ukrainian_greek_catholic","region":"Львівська область"},"geometry":{"type":"Point","coordinates":[24.54139,49.54124]}},
{"type":"Feature","properties":{"name":"Церква Пресвятої Трійці","denomination":"ukrainian_greek_catholic","region":"Львівська область"},"geometry":{"type":"Point","coordinates":[24.00847,49.74544]}},
{"type":"Feature","properties":{"name":"Церква святих Петра і Павла","denomination":"ukrainian_greek_catholic","region":"Львівська область"},"geometry":{"type":"Point","coordinates":[23.90436,49.77851]}},
{"type":"Feature","properties":{"name":"Церква Покрови Пресвятої Богородиці","denomination":"ukrainian_greek_catholic","region":"Львівська область"},"geometry":{"type":"Point","coordinates":[23.73312,49.84116]}},
{"type":"Feature","properties":{"name":"Церква Введення в храм Пресвятої Богородиці","denomination":"ukrainian_greek_catholic","region":"Львівська область"},"geometry":{"type":"Point","coordinates":[24.07272,49.71222]}},
{"type":"Feature","properties":{"name":"Церква Введення в храм Пресвятої Богородиці","denomination":"ukrainian_greek_catholic","region":"Львівська область"},"geometry":{"type":"Point","coordinates":[24.07272,49.71222]}},
{"type":"Feature","properties":{"name":"Церква Святого Симеона Стовпника","denomination":"ukrainian_greek_catholic","region":"Львівська область"},"geometry":{"type":"Point","coordinates":[23.2739,50.00637]}},
{"type":"Feature","properties":{"name":"Церква Успення Пресвятої Богородиці","denomination":"ukrainian_greek_catholic","region":"Львівська область"},"geometry":{"type":"Point","coordinates":[24.40043,49.58527]}},
{"type":"Feature","properties":{"name":"Церква Успення Пресвятої Богородиці","denomination":"ukrainian_greek_catholic","region":"Львівська область"},"geometry":{"type":"Point","coordinates":[24.10886,49.69648]}},
{"type":"Feature","properties":{"name":"Церква Різдва Пресвятої Богородиці","denomination":"ukrainian_greek_catholic","region":"Львівська область"},"geometry":{"type":"Point","coordinates":[24.46968,49.55769]}},
{"type":"Feature","properties":{"name":"Церква святого Миколая","denomination":"ukrainian_greek_catholic","region":"Львівська область"},"geometry":{"type":"Point","coordinates":[23.33985,49.97918]}},
{"type":"Feature","properties":{"name":"Церква святого Василія Великого","denomination":"ukrainian_greek_catholic","region":"Львівська область"},"geometry":{"type":"Point","coordinates":[23.81972,49.80051]}},
{"type":"Feature","properties":{"name":"Церква Успення Пресвятої Богородиці","denomination":"ukrainian_greek_catholic","region":"Львівська область"},"geometry":{"type":"Point","coordinates":[23.674,49.85313]}},
{"type":"Feature","properties":{"name":"Церква Різдва Пресвятої Богородиці","denomination":"ukrainian_greek_catholic","region":"Львівська область"},"geometry":{"type":"Point","coordinates":[23.39985,49.95129]}},
{"type":"Feature","properties":{"name":"Церква Положення Пояса Пресвятої Богородиці","denomination":"ukrainian_greek_catholic","region":"Львівська область"},"geometry":{"type":"Point","coordinates":[23.35344,49.96676]}},
{"type":"Feature","properties":{"name":"Церква Положення чесного пояса Пресвятої Богородиці","denomination":"ukrainian_greek_catholic","region":"Львівська область"},"geometry":{"type":"Point","coordinates":[23.35324,49.96678]}},
{"type":"Feature","properties":{"name":"Церква Зіслання Святого Духа","denomination":"ukrainian_greek_catholic","region":"Львівська область"},"geometry":{"type":"Point","coordinates":[23.93235,49.74961]}},
{"type":"Feature","properties":{"name":"Церква святого Андрія Первозванного","denomination":"ukrainian_greek_catholic","region":"Львівська область"},"geometry":{"type":"Point","coordinates":[24.33934,49.5921]}},
{"type":"Feature","properties":{"name":"Церква Різдва Пресвятої Богородиці","denomination":"ukrainian_greek_catholic","region":"Львівська область"},"geometry":{"type":"Point","coordinates":[24.29208,49.60867]}},
{"type":"Feature","properties":{"name":"Церква Успіння Пресвятої Богородиці","denomination":"ukrainian_greek_catholic","region":"Львівська область"},"geometry":{"type":"Point","coordinates":[23.21001,50.01004]}},
{"type":"Feature","properties":{"name":"Церква Різдва Пресвятої Богородиці","denomination":"ukrainian_greek_catholic","region":"Львівська область"},"geometry":{"type":"Point","coordinates":[23.55392,49.8837]}},
{"type":"Feature","properties":{"name":"Церква Покрову Пресвятої Богородиці","denomination":"ukrainian_greek_catholic","region":"Львівська область"},"geometry":{"type":"Point","coordinates":[23.23578,49.99757]}},
{"type":"Feature","properties":{"name":"Церква святого Миколая","denomination":"ukrainian_greek_catholic","region":"Львівська область"},"geometry":{"type":"Point","coordinates":[24.12755,49.66666]}},
{"type":"Feature","properties":{"name":"Церква святих апостолів Петра і Павла","denomination":"ukrainian_greek_catholic","region":"Львівська область"},"geometry":{"type":"Point","coordinates":[23.9987,49.71526]}},
{"type":"Feature","properties":{"name":"Церква Пресвятої Трійці","denomination":"ukrainian_greek_catholic","region":"Львівська область"},"geometry":{"type":"Point","coordinates":[23.48734,49.90442]}},
{"type":"Feature","properties":{"name":"Церква святих Петра і Павла","denomination":"ukrainian_greek_catholic","region":"Львівська область"},"geometry":{"type":"Point","coordinates":[24.42727,49.55001]}},
{"type":"Feature","properties":{"name":"Церква святого Миколая","denomination":"ukrainian_greek_catholic","region":"Львівська область"},"geometry":{"type":"Point","coordinates":[23.5258,49.88796]}},
{"type":"Feature","properties":{"name":"Церква Пресвятої Трійці","denomination":"ukrainian_greek_catholic","region":"Львівська область"},"geometry":{"type":"Point","coordinates":[24.18138,49.63614]}},
{"type":"Feature","properties":{"name":"Церква святого Архистратига Михаїла","denomination":"ukrainian_greek_catholic","region":"Львівська область"},"geometry":{"type":"Point","coordinates":[23.83993,49.7649]}},
{"type":"Feature","properties":{"name":"Церква Воскресіння Господнього","denomination":"ukrainian_greek_catholic","region":"Львівська область"},"geometry":{"type":"Point","coordinates":[24.14269,49.65065]}},
{"type":"Feature","properties":{"name":"Церква святого пророка Іллі","denomination":"ukrainian_greek_catholic","region":"Львівська область"},"geometry":{"type":"Point","coordinates":[23.5558,49.86851]}},
{"type":"Feature","properties":{"name":"Церква Успення Пресвятої Богородиці","denomination":"ukrainian_greek_catholic","region":"Львівська область"},"geometry":{"type":"Point","coordinates":[24.2319,49.61406]}},
{"type":"Feature","properties":{"name":"Церква Покрови Пресвятої Богородиці","denomination":"ukrainian_greek_catholic","region":"Львівська область"},"geometry":{"type":"Point","coordinates":[23.95139,49.72029]}},
{"type":"Feature","properties":{"name":"Церква спення Пресвятої Богородиці","denomination":"ukrainian_greek_catholic","region":"Львівська область"},"geometry":{"type":"Point","coordinates":[23.25902,49.97519]}},
{"type":"Feature","properties":{"name":"Церква Преображення ГНІХ","denomination":"ukrainian_greek_catholic","region":"Львівська область"},"geometry":{"type":"Point","coordinates":[23.37463,49.93321]}},
{"type":"Feature","properties":{"name":"Церква Покрови Пресвятої Богородиці","denomination":"ukrainian_greek_catholic","region":"Львівська область"},"geometry":{"type":"Point","coordinates":[23.38564,49.92847]}},
{"type":"Feature","properties":{"name":"Церква святого Євстахія Плачиди","denomination":"ukrainian_greek_catholic","region":"Львівська область"},"geometry":{"type":"Point","coordinates":[23.45321,49.90165]}},
{"type":"Feature","properties":{"name":"Церква Різдва Пресвятої Богородиці","denomination":"ukrainian_greek_catholic","region":"Львівська область"},"geometry":{"type":"Point","coordinates":[23.19263,49.99302]}},
{"type":"Feature","properties":{"name":"Церква Введення в Храм Пресвятої Діви Марії","denomination":"ukrainian_greek_catholic","region":"Львівська область"},"geometry":{"type":"Point","coordinates":[24.36023,49.55702]}},
{"type":"Feature","properties":{"name":"Церква Собору Пресвятої Богородиці","denomination":"ukrainian_greek_catholic","region":"Львівська область"},"geometry":{"type":"Point","coordinates":[23.47102,49.88753]}},
{"type":"Feature","properties":{"name":"Церква Стрітення ГНІХ","denomination":"ukrainian_greek_catholic","region":"Львівська область"},"geometry":{"type":"Point","coordinates":[24.3645,49.54786]}},
{"type":"Feature","properties":{"name":"Церква Архістратига Михаїла","denomination":"ukrainian_greek_catholic","region":"Львівська область"},"geometry":{"type":"Point","coordinates":[24.28132,49.5782]}},
{"type":"Feature","properties":{"name":"Церква Положення ризи Пресвятої Богородиці","denomination":"ukrainian_greek_catholic","region":"Львівська область"},"geometry":{"type":"Point","coordinates":[24.36259,49.54254]}},
{"type":"Feature","properties":{"name":"Церква Пресвятої Трійці","denomination":"ukrainian_greek_catholic","region":"Львівська область"},"geometry":{"type":"Point","coordinates":[23.3011,49.93704]}},
{"type":"Feature","properties":{"name":"Церква Успіння Пресвятої Богородиці","denomination":"ukrainian_greek_catholic","region":"Львівська область"},"geometry":{"type":"Point","coordinates":[23.59389,49.82955]}},
{"type":"Feature","properties":{"name":"Церква Різдва Пресвятої Богородиці","denomination":"ukrainian_greek_catholic","region":"Львівська область"},"geometry":{"type":"Point","coordinates":[23.835,49.73822]}},
{"type":"Feature","properties":{"name":"Церква святого Миколая","denomination":"ukrainian_greek_catholic","region":"Львівська область"},"geometry":{"type":"Point","coordinates":[23.64009,49.81059]}},
{"type":"Feature","properties":{"name":"Церква Покрови Пресвятої Богородиці","denomination":"ukrainian_greek_catholic","region":"Львівська область"},"geometry":{"type":"Point","coordinates":[24.347,49.54293]}},
{"type":"Feature","properties":{"name":"Церква Покрови Пресвятої Богородиці","denomination":"ukrainian_greek_catholic","region":"Львівська область"},"geometry":{"type":"Point","coordinates":[24.16698,49.6091]}},
{"type":"Feature","properties":{"name":"Церква Вознесіння ГНІХ","denomination":"ukrainian_greek_catholic","region":"Львівська область"},"geometry":{"type":"Point","coordinates":[23.18633,49.97115]}},
{"type":"Feature","properties":{"name":"Церква святих апостолів Петра і Павла","denomination":"ukrainian_greek_catholic","region":"Львівська область"},"geometry":{"type":"Point","coordinates":[23.32236,49.92149]}},
{"type":"Feature","properties":{"name":"Церква Введення в Храм Пресвятої Богородиці","denomination":"ukrainian_greek_catholic","region":"Львівська область"},"geometry":{"type":"Point","coordinates":[23.38182,49.89971]}},
{"type":"Feature","properties":{"name":"Церква святих Володимира і Ольги","denomination":"ukrainian_greek_catholic","region":"Львівська область"},"geometry":{"type":"Point","coordinates":[23.99806,49.66866]}},
{"type":"Feature","properties":{"name":"Церква Покрову Пресвятої Богородиці","denomination":"ukrainian_greek_catholic","region":"Львівська область"},"geometry":{"type":"Point","coordinates":[23.25981,49.93746]}},
{"type":"Feature","properties":{"name":"Церква Безсрібників і чудотворців Косми і Дам'яна","denomination":"ukrainian_greek_catholic","region":"Львівська область"},"geometry":{"type":"Point","coordinates":[23.59695,49.81375]}},
{"type":"Feature","properties":{"name":"Церква Зачаття святого Івана Христителя","denomination":"ukrainian_greek_catholic","region":"Львівська область"},"geometry":{"type":"Point","coordinates":[23.19604,49.95866]}},
{"type":"Feature","properties":{"name":"Церква Воздвиження Чесного Хреста","denomination":"ukrainian_greek_catholic","region":"Львівська область"},"geometry":{"type":"Point","coordinates":[23.71866,49.76686]}},
{"type":"Feature","properties":{"name":"Церква Різдва Христового","denomination":"ukrainian_greek_catholic","region":"Львівська область"},"geometry":{"type":"Point","coordinates":[24.32713,49.53521]}},
{"type":"Feature","properties":{"name":"Церква Стрітення ГНІХ","denomination":"ukrainian_greek_catholic","region":"Львівська область"},"geometry":{"type":"Point","coordinates":[23.93612,49.68188]}},
{"type":"Feature","properties":{"name":"Церква Покрови Пресвятої Богородиці","denomination":"ukrainian_greek_catholic","region":"Львівська область"},"geometry":{"type":"Point","coordinates":[23.20469,49.95112]}},
{"type":"Feature","properties":{"name":"Церква Покрови Пресвятої Богородиці","denomination":"ukrainian_greek_catholic","region":"Львівська область"},"geometry":{"type":"Point","coordinates":[23.84702,49.71287]}},
{"type":"Feature","properties":{"name":"Церква святих Бориса і Гліба","denomination":"ukrainian_greek_catholic","region":"Львівська область"},"geometry":{"type":"Point","coordinates":[23.52834,49.82905]}},
{"type":"Feature","properties":{"name":"Церква Різдва Пресвятої Богордиці","denomination":"ukrainian_greek_catholic","region":"Львівська область"},"geometry":{"type":"Point","coordinates":[24.3669,49.51169]}},
{"type":"Feature","properties":{"name":"Церква святого Миколая","denomination":"ukrainian_greek_catholic","region":"Львівська область"},"geometry":{"type":"Point","coordinates":[23.16077,49.96069]}},
{"type":"Feature","properties":{"name":"Церква святого Архистратига Михаїла","denomination":"ukrainian_greek_catholic","region":"Львівська область"},"geometry":{"type":"Point","coordinates":[23.92828,49.67754]}},
{"type":"Feature","properties":{"name":"Церква святого Василія Великого","denomination":"ukrainian_greek_catholic","region":"Львівська область"},"geometry":{"type":"Point","coordinates":[23.30977,49.90582]}},
{"type":"Feature","properties":{"name":"Церква Успення Пресвятої Богородиці","denomination":"ukrainian_greek_catholic","region":"Львівська область"},"geometry":{"type":"Point","coordinates":[23.19784,49.93499]}},
{"type":"Feature","properties":{"name":"Церква Преображення ГНІХ","denomination":"ukrainian_greek_catholic","region":"Львівська область"},"geometry":{"type":"Point","coordinates":[23.98157,49.64519]}},
{"type":"Feature","properties":{"name":"Церква Усікновення Голови Івана Христителя","denomination":"ukrainian_greek_catholic","region":"Львівська область"},"geometry":{"type":"Point","coordinates":[23.41693,49.85227]}},
{"type":"Feature","properties":{"name":"Церква святих апостолів Петра і Павла","denomination":"ukrainian_greek_catholic","region":"Львівська область"},"geometry":{"type":"Point","coordinates":[23.13088,49.9529]}},
{"type":"Feature","properties":{"name":"Церква святого пророка Іллі","denomination":"ukrainian_greek_catholic","region":"Львівська область"},"geometry":{"type":"Point","coordinates":[23.20596,49.92519]}},
{"type":"Feature","properties":{"name":"Церква Пресвятої Євхаристії","denomination":"ukrainian_greek_catholic","region":"Львівська область"},"geometry":{"type":"Point","coordinates":[24.3429,49.50028]}},
{"type":"Feature","properties":{"name":"Церква Різдва Пресвятої Богородиці","denomination":"ukrainian_greek_catholic","region":"Львівська область"},"geometry":{"type":"Point","coordinates":[23.33322,49.87667]}},
{"type":"Feature","properties":{"name":"Церква Різдва Пресвятої Богородиці","denomination":"ukrainian_greek_catholic","region":"Львівська область"},"geometry":{"type":"Point","coordinates":[23.33322,49.87667]}},
{"type":"Feature","properties":{"name":"Церква Воздвиження Чесного Хреста","denomination":"ukrainian_greek_catholic","region":"Львівська область"},"geometry":{"type":"Point","coordinates":[23.52454,49.80327]}},
{"type":"Feature","properties":{"name":"Церква Преображення Господнього","denomination":"ukrainian_greek_catholic","region":"Львівська область"},"geometry":{"type":"Point","coordinates":[23.68019,49.74572]}},
{"type":"Feature","properties":{"name":"Церква Успіння Пресвятої Богородиці","denomination":"ukrainian_greek_catholic","region":"Львівська область"},"geometry":{"type":"Point","coordinates":[24.21894,49.54142]}},
{"type":"Feature","properties":{"name":"Церква Пресвятої Трійці","denomination":"ukrainian_greek_catholic","region":"Львівська область"},"geometry":{"type":"Point","coordinates":[24.1951,49.55017]}},
{"type":"Feature","properties":{"name":"Церква святого великомученика Димитрія Мироточця","denomination":"ukrainian_greek_catholic","region":"Львівська область"},"geometry":{"type":"Point","coordinates":[24.30777,49.50589]}},
{"type":"Feature","properties":{"name":"Церква Преподобної Параскевії","denomination":"ukrainian_greek_catholic","region":"Львівська область"},"geometry":{"type":"Point","coordinates":[24.0042,49.61777]}},
{"type":"Feature","properties":{"name":"Церква Успення Пресвятої Богородиці","denomination":"ukrainian_greek_catholic","region":"Львівська область"},"geometry":{"type":"Point","coordinates":[24.23363,49.52996]}},
{"type":"Feature","properties":{"name":"Церква святої Параскевії","denomination":"ukrainian_greek_catholic","region":"Львівська область"},"geometry":{"type":"Point","coordinates":[23.26141,49.89252]}},
{"type":"Feature","properties":{"name":"Церква святого Миколая","denomination":"ukrainian_greek_catholic","region":"Львівська область"},"geometry":{"type":"Point","coordinates":[24.38359,49.47164]}},
{"type":"Feature","properties":{"name":"Церква Успення Пресвятої Богородиці","denomination":"ukrainian_greek_catholic","region":"Львівська область"},"geometry":{"type":"Point","coordinates":[24.31634,49.4953]}},
{"type":"Feature","properties":{"name":"Церква преподобного Онуфрія Великого","denomination":"ukrainian_greek_catholic","region":"Львівська область"},"geometry":{"type":"Point","coordinates":[23.12155,49.93992]}},
{"type":"Feature","properties":{"name":"Церква святого Івана Богослова","denomination":"ukrainian_greek_catholic","region":"Львівська область"},"geometry":{"type":"Point","coordinates":[24.26869,49.51325]}},
{"type":"Feature","properties":{"name":"Церква святого Миколая Чудотворця","denomination":"ukrainian_greek_catholic","region":"Львівська область"},"geometry":{"type":"Point","coordinates":[24.35291,49.47922]}},
{"type":"Feature","properties":{"name":"Церква святого пророка Іллі","denomination":"ukrainian_greek_catholic","region":"Львівська область"},"geometry":{"type":"Point","coordinates":[23.17863,49.91694]}},
{"type":"Feature","properties":{"name":"Церква Христа Царя","denomination":"ukrainian_greek_catholic","region":"Львівська область"},"geometry":{"type":"Point","coordinates":[23.21389,49.90276]}},
{"type":"Feature","properties":{"name":"Церква Різдва св. Івана Хрестителя","denomination":"ukrainian_greek_catholic","region":"Львівська область"},"geometry":{"type":"Point","coordinates":[23.2843,49.87677]}},
{"type":"Feature","properties":{"name":"Церква святого священомученика Йосафата","denomination":"ukrainian_greek_catholic","region":"Львівська область"},"geometry":{"type":"Point","coordinates":[23.81055,49.67717]}},
{"type":"Feature","properties":{"name":"Церква Різдва Пресвятої Богородиці","denomination":"ukrainian_greek_catholic","region":"Львівська область"},"geometry":{"type":"Point","coordinates":[24.29864,49.4908]}},
{"type":"Feature","properties":{"name":"Церква святих апостолів Петра і Павла","denomination":"ukrainian_greek_catholic","region":"Львівська область"},"geometry":{"type":"Point","coordinates":[23.57391,49.76363]}},
{"type":"Feature","properties":{"name":"Церква Різдва Пресвятої Богородиці","denomination":"ukrainian_greek_catholic","region":"Львівська область"},"geometry":{"type":"Point","coordinates":[24.20726,49.52064]}},
{"type":"Feature","properties":{"name":"Церква святої великомучениці Параскевії","denomination":"ukrainian_greek_catholic","region":"Львівська область"},"geometry":{"type":"Point","coordinates":[23.63117,49.7378]}},
{"type":"Feature","properties":{"name":"Церква святого архістратига Михаїла","denomination":"ukrainian_greek_catholic","region":"Львівська область"},"geometry":{"type":"Point","coordinates":[24.37455,49.45406]}},
{"type":"Feature","properties":{"name":"Церква Покрови Пресвятої Богородиці","denomination":"ukrainian_greek_catholic","region":"Львівська область"},"geometry":{"type":"Point","coordinates":[24.30881,49.47295]}},
{"type":"Feature","properties":{"name":"Церква Покрови Пресвятої Богородиці","denomination":"ukrainian_greek_catholic","region":"Львівська область"},"geometry":{"type":"Point","coordinates":[24.30916,49.47272]}},
{"type":"Feature","properties":{"name":"Церква святих апостолів Петра і Павла","denomination":"ukrainian_greek_catholic","region":"Львівська область"},"geometry":{"type":"Point","coordinates":[23.25686,49.862]}},
{"type":"Feature","properties":{"name":"Церква Пресвятої Богородиці","denomination":"ukrainian_greek_catholic","region":"Львівська область"},"geometry":{"type":"Point","coordinates":[24.21774,49.50105]}},
{"type":"Feature","properties":{"name":"Церква Вознесіння Господнього","denomination":"ukrainian_greek_catholic","region":"Львівська область"},"geometry":{"type":"Point","coordinates":[23.56769,49.74243]}},
{"type":"Feature","properties":{"name":"Церква Покрови Пресвятої Богородиці","denomination":"ukrainian_greek_catholic","region":"Львівська область"},"geometry":{"type":"Point","coordinates":[24.02981,49.56786]}},
{"type":"Feature","properties":{"name":"Церква святого архістратига Михаїла","denomination":"ukrainian_greek_catholic","region":"Львівська область"},"geometry":{"type":"Point","coordinates":[24.31501,49.45804]}},
{"type":"Feature","properties":{"name":"Церква святого архистратига Михаїла","denomination":"ukrainian_greek_catholic","region":"Львівська область"},"geometry":{"type":"Point","coordinates":[24.01378,49.56459]}},
{"type":"Feature","properties":{"name":"Церква Пресвятої Трійці","denomination":"ukrainian_greek_catholic","region":"Львівська область"},"geometry":{"type":"Point","coordinates":[24.23396,49.47899]}},
{"type":"Feature","properties":{"name":"Церква святого великомученика Димитрія","denomination":"ukrainian_greek_catholic","region":"Львівська область"},"geometry":{"type":"Point","coordinates":[23.47495,49.76358]}},
{"type":"Feature","properties":{"name":"Церква святого апостола Івана","denomination":"ukrainian_greek_catholic","region":"Львівська область"},"geometry":{"type":"Point","coordinates":[23.50668,49.74896]}},
{"type":"Feature","properties":{"name":"Церква святих Бориса і Гліба","denomination":"ukrainian_greek_catholic","region":"Львівська область"},"geometry":{"type":"Point","coordinates":[23.79557,49.64131]}},
{"type":"Feature","properties":{"name":"Церква Чуда святого Архистратига Михаїла","denomination":"ukrainian_greek_catholic","region":"Львівська область"},"geometry":{"type":"Point","coordinates":[23.7956,49.6413]}},
{"type":"Feature","properties":{"name":"Церква святого Миколая","denomination":"ukrainian_greek_catholic","region":"Львівська область"},"geometry":{"type":"Point","coordinates":[23.79554,49.64131]}},
{"type":"Feature","properties":{"name":"Церква Воздвиження Чесного Хреста","denomination":"ukrainian_greek_catholic","region":"Львівська область"},"geometry":{"type":"Point","coordinates":[24.31889,49.43916]}},
{"type":"Feature","properties":{"name":"Церква архістратига Михаїла","denomination":"ukrainian_greek_catholic","region":"Львівська область"},"geometry":{"type":"Point","coordinates":[23.63426,49.69853]}},
{"type":"Feature","properties":{"name":"Церква святих безсрібників Косми і Дам’яна","denomination":"ukrainian_greek_catholic","region":"Львівська область"},"geometry":{"type":"Point","coordinates":[24.21099,49.4799]}},
{"type":"Feature","properties":{"name":"Церква святого пророка Іллі","denomination":"ukrainian_greek_catholic","region":"Львівська область"},"geometry":{"type":"Point","coordinates":[23.66255,49.68404]}},
{"type":"Feature","properties":{"name":"Церква Успіння Пресвятої Богородиці","denomination":"ukrainian_greek_catholic","region":"Львівська область"},"geometry":{"type":"Point","coordinates":[24.25668,49.45654]}},
{"type":"Feature","properties":{"name":"Церква святих Косми і Дем'яна","denomination":"ukrainian_greek_catholic","region":"Львівська область"},"geometry":{"type":"Point","coordinates":[23.78509,49.63454]}},
{"type":"Feature","properties":{"name":"Церква Покрови Пресвятої Богородиці","denomination":"ukrainian_greek_catholic","region":"Львівська область"},"geometry":{"type":"Point","coordinates":[24.27831,49.44578]}},
{"type":"Feature","properties":{"name":"Церква Різдва Івана Хрестителя","denomination":"ukrainian_greek_catholic","region":"Львівська область"},"geometry":{"type":"Point","coordinates":[24.19637,49.47609]}},
{"type":"Feature","properties":{"name":"Церква Різдва Пресвятої Богородиці","denomination":"ukrainian_greek_catholic","region":"Львівська область"},"geometry":{"type":"Point","coordinates":[23.53074,49.72665]}},
{"type":"Feature","properties":{"name":"Церква Успення Пресвятої Богородиці","denomination":"ukrainian_greek_catholic","region":"Львівська область"},"geometry":{"type":"Point","coordinates":[23.80908,49.61661]}},
{"type":"Feature","properties":{"name":"Церква святого Пророка Іллі","denomination":"ukrainian_greek_catholic","region":"Львівська область"},"geometry":{"type":"Point","coordinates":[24.36571,49.40003]}},
{"type":"Feature","properties":{"name":"Церква усікновення голови святого Івана Хрестителя","denomination":"ukrainian_greek_catholic","region":"Львівська область"},"geometry":{"type":"Point","coordinates":[24.2275,49.45283]}},
{"type":"Feature","properties":{"name":"Церква Пресвятої Тройці","denomination":"ukrainian_greek_catholic","region":"Львівська область"},"geometry":{"type":"Point","coordinates":[23.67212,49.65652]}},
{"type":"Feature","properties":{"name":"Церква Святого архистратига Михаїла","denomination":"ukrainian_greek_catholic","region":"Львівська область"},"geometry":{"type":"Point","coordinates":[24.40355,49.37661]}},
{"type":"Feature","properties":{"name":"Церква Успення Пресвятої Богородиці","denomination":"ukrainian_greek_catholic","region":"Львівська область"},"geometry":{"type":"Point","coordinates":[23.72194,49.63485]}},
{"type":"Feature","properties":{"name":"Церква Преображення Господнього","denomination":"ukrainian_greek_catholic","region":"Львівська область"},"geometry":{"type":"Point","coordinates":[23.54466,49.69666]}},
{"type":"Feature","properties":{"name":"Церква Воздвиження Чесного Хреста","denomination":"ukrainian_greek_catholic","region":"Львівська область"},"geometry":{"type":"Point","coordinates":[24.36808,49.37274]}},
{"type":"Feature","properties":{"name":"Церква Перенесення мощей святого Миколая (с. Побережне, Львівська область) ","denomination":"ukrainian_greek_catholic","region":"Львівська область"},"geometry":{"type":"Point","coordinates":[23.47695,49.70908]}},
{"type":"Feature","properties":{"name":"Церква святого Йосафата","denomination":"ukrainian_greek_catholic","region":"Львівська область"},"geometry":{"type":"Point","coordinates":[24.25372,49.41398]}},
{"type":"Feature","properties":{"name":"Церква Преображення Господа Нашого Ісуса Христа","denomination":"ukrainian_greek_catholic","region":"Львівська область"},"geometry":{"type":"Point","coordinates":[23.76829,49.59806]}},
{"type":"Feature","properties":{"name":"Церква Введення в Храм Пресвятої Богородиці","denomination":"ukrainian_greek_catholic","region":"Львівська область"},"geometry":{"type":"Point","coordinates":[24.18277,49.43934]}},
{"type":"Feature","properties":{"name":"Церква святих Петра і Павла","denomination":"ukrainian_greek_catholic","region":"Львівська область"},"geometry":{"type":"Point","coordinates":[23.23693,49.79033]}},
{"type":"Feature","properties":{"name":"Церква Покрови Пресвятої Богородиці","denomination":"ukrainian_greek_catholic","region":"Львівська область"},"geometry":{"type":"Point","coordinates":[23.64693,49.63952]}},
{"type":"Feature","properties":{"name":"Церква Різдва Пресвятої Діви Марії","denomination":"ukrainian_greek_catholic","region":"Львівська область"},"geometry":{"type":"Point","coordinates":[24.31552,49.38337]}},
{"type":"Feature","properties":{"name":"Церква Воздвиження Чесного Хреста","denomination":"ukrainian_greek_catholic","region":"Львівська область"},"geometry":{"type":"Point","coordinates":[24.21554,49.41705]}},
{"type":"Feature","properties":{"name":"Церква Воздвиження Чесного Хреста","denomination":"ukrainian_greek_catholic","region":"Львівська область"},"geometry":{"type":"Point","coordinates":[24.21545,49.41704]}},
{"type":"Feature","properties":{"name":"Церква святої Параскевії","denomination":"ukrainian_greek_catholic","region":"Львівська область"},"geometry":{"type":"Point","coordinates":[24.35952,49.36036]}},
{"type":"Feature","properties":{"name":"Церква Вознесіння Господнього","denomination":"ukrainian_greek_catholic","region":"Львівська область"},"geometry":{"type":"Point","coordinates":[23.44333,49.69964]}},
{"type":"Feature","properties":{"name":"Церква святого Архистратига Михаїла","denomination":"ukrainian_greek_catholic","region":"Львівська область"},"geometry":{"type":"Point","coordinates":[24.37799,49.34566]}},
{"type":"Feature","properties":{"name":"Церква святого архистратига Михаїла","denomination":"ukrainian_greek_catholic","region":"Львівська область"},"geometry":{"type":"Point","coordinates":[24.21689,49.40444]}},
{"type":"Feature","properties":{"name":"Церква Покрови Пресвятої Богородиці","denomination":"ukrainian_greek_catholic","region":"Львівська область"},"geometry":{"type":"Point","coordinates":[24.29709,49.37249]}},
{"type":"Feature","properties":{"name":"Церква Воскресіння Христового","denomination":"ukrainian_greek_catholic","region":"Львівська область"},"geometry":{"type":"Point","coordinates":[23.96215,49.50061]}},
{"type":"Feature","properties":{"name":"Церква Покрови Пресвятої Богородиці","denomination":"ukrainian_greek_catholic","region":"Львівська область"},"geometry":{"type":"Point","coordinates":[23.75368,49.57045]}},
{"type":"Feature","properties":{"name":"Церква Покрову Пресвятої Богородиці","denomination":"ukrainian_greek_catholic","region":"Львівська область"},"geometry":{"type":"Point","coordinates":[24.35929,49.33554]}},
{"type":"Feature","properties":{"name":"Церква святого Миколая","denomination":"ukrainian_greek_catholic","region":"Львівська область"},"geometry":{"type":"Point","coordinates":[24.22967,49.38552]}},
{"type":"Feature","properties":{"name":"Церква Преподобної Параскеви","denomination":"ukrainian_greek_catholic","region":"Львівська область"},"geometry":{"type":"Point","coordinates":[24.16079,49.41066]}},
{"type":"Feature","properties":{"name":"Церква Вознесіння Господнього","denomination":"ukrainian_greek_catholic","region":"Львівська область"},"geometry":{"type":"Point","coordinates":[24.16069,49.41002]}},
{"type":"Feature","properties":{"name":"Церква Собору Пресвятої Богородиці","denomination":"ukrainian_greek_catholic","region":"Львівська область"},"geometry":{"type":"Point","coordinates":[23.71888,49.57269]}},
{"type":"Feature","properties":{"name":"Церква Собору Пресвятої Богородиці","denomination":"ukrainian_greek_catholic","region":"Львівська область"},"geometry":{"type":"Point","coordinates":[24.29236,49.35341]}},
{"type":"Feature","properties":{"name":"Церква вуликомучениці Параскевії","denomination":"ukrainian_greek_catholic","region":"Львівська область"},"geometry":{"type":"Point","coordinates":[24.33641,49.33256]}},
{"type":"Feature","properties":{"name":"Церква святого Миколая","denomination":"ukrainian_greek_catholic","region":"Львівська область"},"geometry":{"type":"Point","coordinates":[23.67102,49.58289]}},
{"type":"Feature","properties":{"name":"Церква Преображення Господнього","denomination":"ukrainian_greek_catholic","region":"Львівська область"},"geometry":{"type":"Point","coordinates":[24.25849,49.35947]}},
{"type":"Feature","properties":{"name":"Церква Різдва Пресвятої Богородиці","denomination":"ukrainian_greek_catholic","region":"Львівська область"},"geometry":{"type":"Point","coordinates":[24.11196,49.41225]}},
{"type":"Feature","properties":{"name":"Церква Успення Пресвятої Богородиці","denomination":"ukrainian_greek_catholic","region":"Львівська область"},"geometry":{"type":"Point","coordinates":[24.19984,49.3663]}},
{"type":"Feature","properties":{"name":"Церква святого Миколи","denomination":"ukrainian_greek_catholic","region":"Львівська область"},"geometry":{"type":"Point","coordinates":[24.05978,49.40908]}},
{"type":"Feature","properties":{"name":"Церква Різдва святого Івана Хрестителя","denomination":"ukrainian_greek_catholic","region":"Львівська область"},"geometry":{"type":"Point","coordinates":[24.1043,49.38958]}},
{"type":"Feature","properties":{"name":"Церква Різдва Пресвятої Богородиці","denomination":"ukrainian_greek_catholic","region":"Львівська область"},"geometry":{"type":"Point","coordinates":[24.22923,49.33727]}},
{"type":"Feature","properties":{"name":"Церква Покрови Пресвятої Богородиці","denomination":"ukrainian_greek_catholic","region":"Львівська область"},"geometry":{"type":"Point","coordinates":[24.169,49.35969]}},
{"type":"Feature","properties":{"name":"Церква святих апостолів Петра і Павла","denomination":"ukrainian_greek_catholic","region":"Львівська область"},"geometry":{"type":"Point","coordinates":[24.19432,49.33698]}},
{"type":"Feature","properties":{"name":"Церква святого Антонія Великого","denomination":"ukrainian_greek_catholic","region":"Львівська область"},"geometry":{"type":"Point","coordinates":[24.26243,49.30965]}},
{"type":"Feature","properties":{"name":"Церква святого Архангела Михаїла","denomination":"ukrainian_greek_catholic","region":"Львівська область"},"geometry":{"type":"Point","coordinates":[23.65306,49.54026]}},
{"type":"Feature","properties":{"name":"Церква Покрови Пресвятої Богородиці","denomination":"ukrainian_greek_catholic","region":"Львівська область"},"geometry":{"type":"Point","coordinates":[24.09097,49.37413]}},
{"type":"Feature","properties":{"name":"Церква святого Миколая Чудотворця","denomination":"ukrainian_greek_catholic","region":"Львівська область"},"geometry":{"type":"Point","coordinates":[24.22554,49.31786]}},
{"type":"Feature","properties":{"name":"Церква святого Архістратига Михаїла","denomination":"ukrainian_greek_catholic","region":"Львівська область"},"geometry":{"type":"Point","coordinates":[24.23801,49.30278]}},
{"type":"Feature","properties":{"name":"Церква святого великомученика Дмитрія","denomination":"ukrainian_greek_catholic","region":"Львівська область"},"geometry":{"type":"Point","coordinates":[24.06954,49.35927]}},
{"type":"Feature","properties":{"name":"Церква Благовіщення Пресвятої Богородиці","denomination":"ukrainian_greek_catholic","region":"Львівська область"},"geometry":{"type":"Point","coordinates":[24.06038,49.35927]}},
{"type":"Feature","properties":{"name":"Церква Успіння Пресвятої Богородиці","denomination":"ukrainian_greek_catholic","region":"Львівська область"},"geometry":{"type":"Point","coordinates":[24.07306,49.34663]}},
{"type":"Feature","properties":{"name":"Церква Успіння Пресвятої Богородиці","denomination":"ukrainian_greek_catholic","region":"Львівська область"},"geometry":{"type":"Point","coordinates":[24.35323,49.23219]}},
{"type":"Feature","properties":{"name":"Церква Святих апостолів Петра і Павла","denomination":"ukrainian_greek_catholic","region":"Львівська область"},"geometry":{"type":"Point","coordinates":[24.0359,49.3498]}},
{"type":"Feature","properties":{"name":"Церква Різдва Пресвятої Богородиці","denomination":"ukrainian_greek_catholic","region":"Львівська область"},"geometry":{"type":"Point","coordinates":[24.39012,49.21129]}},
{"type":"Feature","properties":{"name":"Церква перенесення мощей святого Миколая","denomination":"ukrainian_greek_catholic","region":"Львівська область"},"geometry":{"type":"Point","coordinates":[24.12513,49.31234]}},
{"type":"Feature","properties":{"name":"Церква святого Миколая","denomination":"ukrainian_greek_catholic","region":"Львівська область"},"geometry":{"type":"Point","coordinates":[24.34011,49.2168]}},
{"type":"Feature","properties":{"name":"Церква святого Миколи","denomination":"ukrainian_greek_catholic","region":"Львівська область"},"geometry":{"type":"Point","coordinates":[24.28913,49.23542]}},
{"type":"Feature","properties":{"name":"Церква покрови Пресвятої Богородиці","denomination":"ukrainian_greek_catholic","region":"Львівська область"},"geometry":{"type":"Point","coordinates":[24.29471,49.22773]}},
{"type":"Feature","properties":{"name":"Церква Зіслання Святого Духа","denomination":"ukrainian_greek_catholic","region":"Львівська область"},"geometry":{"type":"Point","coordinates":[24.16216,49.27907]}},
{"type":"Feature","properties":{"name":"Церква Івана Хрестителя","denomination":"ukrainian_greek_catholic","region":"Львівська область"},"geometry":{"type":"Point","coordinates":[24.24837,49.24036]}},
{"type":"Feature","properties":{"name":"Церква Преподобної Параскевії","denomination":"ukrainian_greek_catholic","region":"Львівська область"},"geometry":{"type":"Point","coordinates":[24.00471,49.32912]}},
{"type":"Feature","properties":{"name":"Церква Рiздва Христового","denomination":"ukrainian_greek_catholic","region":"Львівська область"},"geometry":{"type":"Point","coordinates":[23.96596,49.33604]}},
{"type":"Feature","properties":{"name":"Церква Різдва Христового","denomination":"ukrainian_greek_catholic","region":"Львівська область"},"geometry":{"type":"Point","coordinates":[24.30145,49.20513]}},
{"type":"Feature","properties":{"name":"Церква Покрови Пресвятої Богородиці","denomination":"ukrainian_greek_catholic","region":"Львівська область"},"geometry":{"type":"Point","coordinates":[24.07343,49.2923]}},
{"type":"Feature","properties":{"name":"Церква святого Євстахія","denomination":"ukrainian_greek_catholic","region":"Львівська область"},"geometry":{"type":"Point","coordinates":[24.12854,49.27061]}},
{"type":"Feature","properties":{"name":"Церква святого Миколая","denomination":"ukrainian_greek_catholic","region":"Львівська область"},"geometry":{"type":"Point","coordinates":[23.95332,49.33702]}},
{"type":"Feature","properties":{"name":"Церква святого Миколая","denomination":"ukrainian_greek_catholic","region":"Львівська область"},"geometry":{"type":"Point","coordinates":[24.2489,49.219]}},
{"type":"Feature","properties":{"name":"Церква собору Пресвятої Богородиці","denomination":"ukrainian_greek_catholic","region":"Львівська область"},"geometry":{"type":"Point","coordinates":[24.19817,49.22929]}},
{"type":"Feature","properties":{"name":"Церква святого Миколая","denomination":"ukrainian_greek_catholic","region":"Львівська область"},"geometry":{"type":"Point","coordinates":[23.99041,49.30842]}},
{"type":"Feature","properties":{"name":"Церква Різдва Пресвятої Богородиці","denomination":"ukrainian_greek_catholic","region":"Львівська область"},"geometry":{"type":"Point","coordinates":[24.15335,49.24198]}},
{"type":"Feature","properties":{"name":"Церква святих Косми і Дам'яна","denomination":"ukrainian_greek_catholic","region":"Львівська область"},"geometry":{"type":"Point","coordinates":[23.93137,49.32658]}},
{"type":"Feature","properties":{"name":"Церква Різдва Пресвятої Богородиці","denomination":"ukrainian_greek_catholic","region":"Львівська область"},"geometry":{"type":"Point","coordinates":[24.26292,49.19759]}},
{"type":"Feature","properties":{"name":"Церква Вознесіння Ісуса Христа","denomination":"ukrainian_greek_catholic","region":"Львівська область"},"geometry":{"type":"Point","coordinates":[24.20606,49.20958]}},
{"type":"Feature","properties":{"name":"Церква Покрови Пресвятої Богородиці","denomination":"ukrainian_greek_catholic","region":"Львівська область"},"geometry":{"type":"Point","coordinates":[24.08665,49.24195]}},
{"type":"Feature","properties":{"name":"Церква Преподобної Параскевії","denomination":"ukrainian_greek_catholic","region":"Львівська область"},"geometry":{"type":"Point","coordinates":[24.24576,49.17553]}},
{"type":"Feature","properties":{"name":"Церква святого архістратига Михаїла","denomination":"ukrainian_greek_catholic","region":"Львівська область"},"geometry":{"type":"Point","coordinates":[24.20354,49.18934]}},
{"type":"Feature","properties":{"name":"Церква Успiння Пресвятої Богородицi","denomination":"ukrainian_greek_catholic","region":"Львівська область"},"geometry":{"type":"Point","coordinates":[23.95197,49.2731]}},
{"type":"Feature","properties":{"name":"Церква Воздвиження Чесного Хреста","denomination":"ukrainian_greek_catholic","region":"Львівська область"},"geometry":{"type":"Point","coordinates":[24.1282,49.20282]}},
{"type":"Feature","properties":{"name":"Церква Покрови Пресвятої Богородиці","denomination":"ukrainian_greek_catholic","region":"Львівська область"},"geometry":{"type":"Point","coordinates":[24.16622,49.18495]}},
{"type":"Feature","properties":{"name":"Церква Зіслання Святого Духа","denomination":"ukrainian_greek_catholic","region":"Львівська область"},"geometry":{"type":"Point","coordinates":[23.13694,49.5675]}},
{"type":"Feature","properties":{"name":"Церква Миколая Чарнецького","denomination":"ukrainian_greek_catholic","region":"Львівська область"},"geometry":{"type":"Point","coordinates":[23.84956,49.27354]}},
{"type":"Feature","properties":{"name":"Церква святого Миколая","denomination":"ukrainian_greek_catholic","region":"Львівська область"},"geometry":{"type":"Point","coordinates":[23.92915,49.22275]}},
{"type":"Feature","properties":{"name":"Церква святого Димитрiя","denomination":"ukrainian_greek_catholic","region":"Львівська область"},"geometry":{"type":"Point","coordinates":[24.03805,49.1755]}},
{"type":"Feature","properties":{"name":"Церква святого Миколая","denomination":"ukrainian_greek_catholic","region":"Львівська область"},"geometry":{"type":"Point","coordinates":[23.87469,49.22402]}},
{"type":"Feature","properties":{"name":"Церква Преподобної Матері Параскевії Тарнавської","denomination":"ukrainian_greek_catholic","region":"Львівська область"},"geometry":{"type":"Point","coordinates":[23.91753,49.20101]}},
{"type":"Feature","properties":{"name":"Церква Стрітення Господнього","denomination":"ukrainian_greek_catholic","region":"Львівська область"},"geometry":{"type":"Point","coordinates":[23.99568,49.15923]}},
{"type":"Feature","properties":{"name":"Церква Преображення Господнього","denomination":"ukrainian_greek_catholic","region":"Львівська область"},"geometry":{"type":"Point","coordinates":[23.83917,49.21829]}},
{"type":"Feature","properties":{"name":"Церква Усікновення Голови Івана Хрестителя","denomination":"ukrainian_greek_catholic","region":"Львівська область"},"geometry":{"type":"Point","coordinates":[23.85871,49.20455]}},
{"type":"Feature","properties":{"name":"Церква Пресвятої Трійці","denomination":"ukrainian_greek_catholic","region":"Львівська область"},"geometry":{"type":"Point","coordinates":[23.8552,49.19488]}},
{"type":"Feature","properties":{"name":"Церква Архістратига Михаїла","denomination":"ukrainian_greek_catholic","region":"Львівська область"},"geometry":{"type":"Point","coordinates":[23.96064,49.14158]}},
{"type":"Feature","properties":{"name":"Церква Успіння Пресвятої Богородиці","denomination":"ukrainian_greek_catholic","region":"Львівська область"},"geometry":{"type":"Point","coordinates":[23.865,49.17542]}},
{"type":"Feature","properties":{"name":"Церква святого Івана Хрестителя","denomination":"ukrainian_greek_catholic","region":"Львівська область"},"geometry":{"type":"Point","coordinates":[23.93424,49.13817]}},
{"type":"Feature","properties":{"name":"Церква Введення в храм Богородиці","denomination":"ukrainian_greek_catholic","region":"Львівська область"},"geometry":{"type":"Point","coordinates":[23.81357,49.17393]}},
{"type":"Feature","properties":{"name":"Церква святої великомучениці Параскевії","denomination":"ukrainian_greek_catholic","region":"Львівська область"},"geometry":{"type":"Point","coordinates":[23.7722,49.17975]}},
{"type":"Feature","properties":{"name":"Церква Різдва Пресвятої Богородиці","denomination":"ukrainian_greek_catholic","region":"Львівська область"},"geometry":{"type":"Point","coordinates":[23.82075,49.15704]}},
{"type":"Feature","properties":{"name":"Церква Різдва Пресвятої Богородиці","denomination":"ukrainian_greek_catholic","region":"Львівська область"},"geometry":{"type":"Point","coordinates":[23.88755,49.12743]}},
{"type":"Feature","properties":{"name":"Церква святого Дмитрія та Богоявлення Господнього","denomination":"ukrainian_greek_catholic","region":"Львівська область"},"geometry":{"type":"Point","coordinates":[23.89716,49.12147]}},
{"type":"Feature","properties":{"name":"Церква Богоявлення Господнього","denomination":"ukrainian_greek_catholic","region":"Львівська область"},"geometry":{"type":"Point","coordinates":[23.89705,49.12108]}},
{"type":"Feature","properties":{"name":"Церква Успіння Пресвятої Богородиці","denomination":"ukrainian_greek_catholic","region":"Львівська область"},"geometry":{"type":"Point","coordinates":[23.7778,49.14818]}},
{"type":"Feature","properties":{"name":"Церква Собору Івана Хрестителя","denomination":"ukrainian_greek_catholic","region":"Львівська область"},"geometry":{"type":"Point","coordinates":[23.79871,49.13904]}},
{"type":"Feature","properties":{"name":"Церква Воздвиження Чесного Хреста","denomination":"ukrainian_greek_catholic","region":"Львівська область"},"geometry":{"type":"Point","coordinates":[23.74332,49.1556]}},
{"type":"Feature","properties":{"name":"Церква Вознесіння Господнього","denomination":"ukrainian_greek_catholic","region":"Львівська область"},"geometry":{"type":"Point","coordinates":[23.40612,49.28025]}},
{"type":"Feature","properties":{"name":"Церква Архангела Михаїла","denomination":"ukrainian_greek_catholic","region":"Львівська область"},"geometry":{"type":"Point","coordinates":[23.65757,49.13557]}},
{"type":"Feature","properties":{"name":"Церква Собору Івана Хрестителя","denomination":"ukrainian_greek_catholic","region":"Львівська область"},"geometry":{"type":"Point","coordinates":[22.88037,49.30285]}},
{"type":"Feature","properties":{"name":"Церква великомученика Пантелеймона","denomination":"ukrainian_greek_catholic","region":"Львівська область"},"geometry":{"type":"Point","coordinates":[23.51167,49.03361]}},
{"type":"Feature","properties":{"name":"Церква Івана Богослова","denomination":"ukrainian_greek_catholic","region":"Львівська область"},"geometry":{"type":"Point","coordinates":[23.39335,48.89081]}},
{"type":"Feature","properties":{"name":"Церква святого Василія Великого","denomination":"ukrainian_greek_catholic","region":"Львівська область"},"geometry":{"type":"Point","coordinates":[23.35126,48.90588]}},
{"type":"Feature","properties":{"name":"Церква священомученика Миколая Чарнецького","denomination":"ukrainian_greek_catholic","region":"Одеська область"},"geometry":{"type":"Point","coordinates":[30.89696,47.20556]}},
{"type":"Feature","properties":{"name":"Церква Вознесіння Господнього","denomination":"ukrainian_greek_catholic","region":"Одеська область"},"geometry":{"type":"Point","coordinates":[30.77558,46.56559]}},
{"type":"Feature","properties":{"name":"Церква Вознесіння ГНІХ","denomination":"ukrainian_greek_catholic","region":"Полтавська область"},"geometry":{"type":"Point","coordinates":[34.31435,49.6214]}},
{"type":"Feature","properties":{"name":"Церква Пророка Іллі","denomination":"ukrainian_greek_catholic","region":"Полтавська область"},"geometry":{"type":"Point","coordinates":[34.27043,49.26074]}},
{"type":"Feature","properties":{"name":"Церква Вознесіння Господнього","denomination":"ukrainian_greek_catholic","region":"Полтавська область"},"geometry":{"type":"Point","coordinates":[34.21243,49.14697]}},
{"type":"Feature","properties":{"name":"Церква Св. Миколая","denomination":"ukrainian_greek_catholic","region":"Полтавська область"},"geometry":{"type":"Point","coordinates":[34.25921,48.94921]}},
{"type":"Feature","properties":{"name":"Церква Архистратига Михаїла","denomination":"ukrainian_greek_catholic","region":"Полтавська область"},"geometry":{"type":"Point","coordinates":[33.90331,49.1534]}},
{"type":"Feature","properties":{"name":"Церква Різдва Пресвятої Богородиці","denomination":"ukrainian_greek_catholic","region":"Полтавська область"},"geometry":{"type":"Point","coordinates":[34.18462,48.94588]}},
{"type":"Feature","properties":{"name":"Церква святого Юрія","denomination":"ukrainian_greek_catholic","region":"Рівненська область"},"geometry":{"type":"Point","coordinates":[26.26305,50.63842]}},
{"type":"Feature","properties":{"name":"Церква святих і праведних богоотців Йоакима і Анни","denomination":"ukrainian_greek_catholic","region":"Рівненська область"},"geometry":{"type":"Point","coordinates":[26.51974,50.32438]}},
{"type":"Feature","properties":{"name":"Храм Успіння Пресвятої Богородиці","denomination":"ukrainian_greek_catholic","region":"Севастополь"},"geometry":{"type":"Point","coordinates":[33.46682,44.56773]}},
{"type":"Feature","properties":{"name":"Церква святого Миколая Чудотворця","denomination":"ukrainian_greek_catholic","region":"Херсонська область"},"geometry":{"type":"Point","coordinates":[32.69342,46.81887]}},
{"type":"Feature","properties":{"name":"Церква Благовіщення Пресвятої Богородиці","denomination":"ukrainian_greek_catholic","region":"Херсонська область"},"geometry":{"type":"Point","coordinates":[32.56676,46.75271]}},
{"type":"Feature","properties":{"name":"Церква Різдва Христового","denomination":"ukrainian_greek_catholic","region":"Херсонська область"},"geometry":{"type":"Point","coordinates":[32.55456,46.69117]}},
{"type":"Feature","properties":{"name":"Церква Успення Пресвятої Богородиці","denomination":"ukrainian_greek_catholic","region":"Хмельницька область"},"geometry":{"type":"Point","coordinates":[27.51525,50.11353]}},
{"type":"Feature","properties":{"name":"Церква святих мучеників Бориса і Гліба","denomination":"ukrainian_greek_catholic","region":"Хмельницька область"},"geometry":{"type":"Point","coordinates":[27.08095,50.18173]}},
{"type":"Feature","properties":{"name":"Церква святої рівноапостольної княгині Ольги","denomination":"ukrainian_greek_catholic","region":"Хмельницька область"},"geometry":{"type":"Point","coordinates":[27.21862,49.74045]}},
{"type":"Feature","properties":{"name":"Церква святого великомученика Димитрія Солунського","denomination":"ukrainian_greek_catholic","region":"Хмельницька область"},"geometry":{"type":"Point","coordinates":[26.86344,49.81039]}},
{"type":"Feature","properties":{"name":"Церква святого рівноапостольного князя Володимира","denomination":"ukrainian_greek_catholic","region":"Хмельницька область"},"geometry":{"type":"Point","coordinates":[26.97967,49.64629]}},
{"type":"Feature","properties":{"name":"Церква Покрови Пресвятої Богородиці","denomination":"ukrainian_greek_catholic","region":"Хмельницька область"},"geometry":{"type":"Point","coordinates":[27.61825,49.23687]}},
{"type":"Feature","properties":{"name":"Церква Різдва Пресвятої Богородиці","denomination":"ukrainian_greek_catholic","region":"Хмельницька область"},"geometry":{"type":"Point","coordinates":[26.72081,49.61071]}},
{"type":"Feature","properties":{"name":"Церква святого апостола Луки","denomination":"ukrainian_greek_catholic","region":"Хмельницька область"},"geometry":{"type":"Point","coordinates":[26.7263,49.57821]}},
{"type":"Feature","properties":{"name":"Церква святого Миколая Чудотворця","denomination":"ukrainian_greek_catholic","region":"Хмельницька область"},"geometry":{"type":"Point","coordinates":[27.00019,49.41992]}},
{"type":"Feature","properties":{"name":"Церква Пресвятої Трійці","denomination":"ukrainian_greek_catholic","region":"Хмельницька область"},"geometry":{"type":"Point","coordinates":[26.98585,49.39308]}},
{"type":"Feature","properties":{"name":"Церква Успення Пресвятої Богородиці","denomination":"ukrainian_greek_catholic","region":"Хмельницька область"},"geometry":{"type":"Point","coordinates":[26.35826,49.53857]}},
{"type":"Feature","properties":{"name":"Церква Преображення Господнього","denomination":"ukrainian_greek_catholic","region":"Хмельницька область"},"geometry":{"type":"Point","coordinates":[26.43585,49.48686]}},
{"type":"Feature","properties":{"name":"Церква святих Володимира та Ольги","denomination":"ukrainian_greek_catholic","region":"Хмельницька область"},"geometry":{"type":"Point","coordinates":[26.29749,49.51673]}},
{"type":"Feature","properties":{"name":"Церква Різдва Пресвятої Богородиці","denomination":"ukrainian_greek_catholic","region":"Хмельницька область"},"geometry":{"type":"Point","coordinates":[26.22316,49.53757]}},
{"type":"Feature","properties":{"name":"Церква святих великомучеників Бориса і Гліба","denomination":"ukrainian_greek_catholic","region":"Хмельницька область"},"geometry":{"type":"Point","coordinates":[27.26308,48.82965]}},
{"type":"Feature","properties":{"name":"Церква Святих верховних апостолів Петра і Павла","denomination":"ukrainian_greek_catholic","region":"Хмельницька область"},"geometry":{"type":"Point","coordinates":[26.21346,49.0994]}},
{"type":"Feature","properties":{"name":"Церква Успіння Пресвятої Богородиці","denomination":"ukrainian_greek_catholic","region":"Хмельницька область"},"geometry":{"type":"Point","coordinates":[27.0158,48.6339]}},
{"type":"Feature","properties":{"name":"Церква Перенесення мощей святого Миколая Чудотворця","denomination":"ukrainian_greek_catholic","region":"Хмельницька область"},"geometry":{"type":"Point","coordinates":[27.08164,48.59554]}},
{"type":"Feature","properties":{"name":"Церква Верховних апостолів Петра і Павла","denomination":"ukrainian_greek_catholic","region":"Хмельницька область"},"geometry":{"type":"Point","coordinates":[27.04072,48.57501]}},
{"type":"Feature","properties":{"name":"Церква Перенесеня мощей св. Миколая Чудотворця","denomination":"ukrainian_greek_catholic","region":"Хмельницька область"},"geometry":{"type":"Point","coordinates":[26.4929,48.55018]}},
{"type":"Feature","properties":{"name":"Церква Успіння Богородиці","denomination":"ukrainian_greek_catholic","region":"Черкаська область"},"geometry":{"type":"Point","coordinates":[32.25156,49.85098]}},
{"type":"Feature"}
]}
