{
"type": "FeatureCollection",
"errorDescr": "Invalid housenumber tagging",
"features": [
{"type":"Feature","properties":{"josm":"w104362139","name":"Облстоматмедоб`єднання","region":"Житомирська область"},"geometry":{"type":"Point","coordinates":[28.66953,50.26387]}},
{"type":"Feature","properties":{"josm":"w105521608","name":"5","region":"Дніпропетровська область"},"geometry":{"type":"Point","coordinates":[35.06433,48.48319]}},
{"type":"Feature","properties":{"josm":"w105521616","name":"1","region":"Дніпропетровська область"},"geometry":{"type":"Point","coordinates":[35.06366,48.48437]}},
{"type":"Feature","properties":{"josm":"w105521617","name":"7","region":"Дніпропетровська область"},"geometry":{"type":"Point","coordinates":[35.06483,48.48398]}},
{"type":"Feature","properties":{"josm":"w105521623","name":"4","region":"Дніпропетровська область"},"geometry":{"type":"Point","coordinates":[35.06338,48.48288]}},
{"type":"Feature","properties":{"josm":"w105521627","name":"3","region":"Дніпропетровська область"},"geometry":{"type":"Point","coordinates":[35.06316,48.48357]}},
{"type":"Feature","properties":{"josm":"w105521628","name":"2","region":"Дніпропетровська область"},"geometry":{"type":"Point","coordinates":[35.06341,48.48397]}},
{"type":"Feature","properties":{"josm":"w105521633","name":"6","region":"Дніпропетровська область"},"geometry":{"type":"Point","coordinates":[35.06458,48.48358]}},
{"type":"Feature","properties":{"josm":"w115354370","addrhousename":"56","region":"Дніпропетровська область"},"geometry":{"type":"Point","coordinates":[33.33243,47.91335]}},
{"type":"Feature","properties":{"josm":"w115354492","addrhousename":"54","region":"Дніпропетровська область"},"geometry":{"type":"Point","coordinates":[33.33196,47.91283]}},
{"type":"Feature","properties":{"josm":"w117324158","name":"22","region":"Київ"},"geometry":{"type":"Point","coordinates":[30.48019,50.37369]}},
{"type":"Feature","properties":{"josm":"w128110885","name":"19","region":"Київ"},"geometry":{"type":"Point","coordinates":[30.4842,50.37964]}},
{"type":"Feature","properties":{"josm":"w128110886","name":"21","region":"Київ"},"geometry":{"type":"Point","coordinates":[30.48543,50.37774]}},
{"type":"Feature","properties":{"josm":"w128110887","name":"71","region":"Київ"},"geometry":{"type":"Point","coordinates":[30.48141,50.37771]}},
{"type":"Feature","properties":{"josm":"w130632554","name":"55","region":"Хмельницька область"},"geometry":{"type":"Point","coordinates":[26.99365,49.41223]}},
{"type":"Feature","properties":{"josm":"w130705036","name":"4","region":"Автономна Республіка Крим"},"geometry":{"type":"Point","coordinates":[33.27993,45.30102]}},
{"type":"Feature","properties":{"josm":"w133332434","name":"53","region":"Хмельницька область"},"geometry":{"type":"Point","coordinates":[26.94222,49.41266]}},
{"type":"Feature","properties":{"josm":"w133603088","name":"17","region":"Хмельницька область"},"geometry":{"type":"Point","coordinates":[26.94825,49.40796]}},
{"type":"Feature","properties":{"josm":"w133730331","name":"110","region":"Луганська область"},"geometry":{"type":"Point","coordinates":[39.67763,48.08016]}},
{"type":"Feature","properties":{"josm":"w140062949","name":"94800-94812","region":"Луганська область"},"geometry":{"type":"Point","coordinates":[39.67977,48.07881]}},
{"type":"Feature","properties":{"josm":"w144526100","name":"34a","region":"Волинська область"},"geometry":{"type":"Point","coordinates":[24.32203,50.86555]}},
{"type":"Feature","properties":{"josm":"w144550919","name":"36","region":"Волинська область"},"geometry":{"type":"Point","coordinates":[24.32271,50.86606]}},
{"type":"Feature","properties":{"josm":"w152646148","name":"1","region":"Харківська область"},"geometry":{"type":"Point","coordinates":[36.06505,49.87635]}},
{"type":"Feature","properties":{"josm":"w155242342","name":"32","region":"Дніпропетровська область"},"geometry":{"type":"Point","coordinates":[33.23841,47.76051]}},
{"type":"Feature","properties":{"josm":"w193454977","name":"5","region":"Житомирська область"},"geometry":{"type":"Point","coordinates":[28.58655,49.90213]}},
{"type":"Feature","properties":{"josm":"w196256619","name":"67224","region":"Одеська область"},"geometry":{"type":"Point","coordinates":[30.65316,46.93186]}},
{"type":"Feature","properties":{"josm":"w202260439","name":"14","region":"Дніпропетровська область"},"geometry":{"type":"Point","coordinates":[34.02287,48.47378]}},
{"type":"Feature","properties":{"josm":"w202260440","name":"4","region":"Дніпропетровська область"},"geometry":{"type":"Point","coordinates":[34.02043,48.47359]}},
{"type":"Feature","properties":{"josm":"w202260443","name":"5","region":"Дніпропетровська область"},"geometry":{"type":"Point","coordinates":[34.02699,48.47344]}},
{"type":"Feature","properties":{"josm":"w202260446","name":"20","region":"Дніпропетровська область"},"geometry":{"type":"Point","coordinates":[34.02775,48.47429]}},
{"type":"Feature","properties":{"josm":"w202260447","name":"15","region":"Дніпропетровська область"},"geometry":{"type":"Point","coordinates":[34.02435,48.47583]}},
{"type":"Feature","properties":{"josm":"w202260448","name":"21","region":"Дніпропетровська область"},"geometry":{"type":"Point","coordinates":[34.02747,48.47597]}},
{"type":"Feature","properties":{"josm":"w202260453","name":"6","region":"Дніпропетровська область"},"geometry":{"type":"Point","coordinates":[34.02069,48.47259]}},
{"type":"Feature","properties":{"josm":"w202260461","name":"28","region":"Дніпропетровська область"},"geometry":{"type":"Point","coordinates":[34.03093,48.47674]}},
{"type":"Feature","properties":{"josm":"w202260466","name":"2","region":"Дніпропетровська область"},"geometry":{"type":"Point","coordinates":[34.01956,48.47342]}},
{"type":"Feature","properties":{"josm":"w202260467","name":"24","region":"Дніпропетровська область"},"geometry":{"type":"Point","coordinates":[34.02736,48.47349]}},
{"type":"Feature","properties":{"josm":"w202260469","name":"12","region":"Дніпропетровська область"},"geometry":{"type":"Point","coordinates":[34.02366,48.47489]}},
{"type":"Feature","properties":{"josm":"w202260470","name":"27","region":"Дніпропетровська область"},"geometry":{"type":"Point","coordinates":[34.03159,48.47397]}},
{"type":"Feature","properties":{"josm":"w202260472","name":"17","region":"Дніпропетровська область"},"geometry":{"type":"Point","coordinates":[34.02729,48.47515]}},
{"type":"Feature","properties":{"josm":"w202260473","name":"20","region":"Дніпропетровська область"},"geometry":{"type":"Point","coordinates":[34.02476,48.47384]}},
{"type":"Feature","properties":{"josm":"w202260474","name":"21","region":"Дніпропетровська область"},"geometry":{"type":"Point","coordinates":[34.02866,48.47613]}},
{"type":"Feature","properties":{"josm":"w202260946","name":"21","region":"Дніпропетровська область"},"geometry":{"type":"Point","coordinates":[34.03163,48.47344]}},
{"type":"Feature","properties":{"josm":"w202260951","name":"7","region":"Дніпропетровська область"},"geometry":{"type":"Point","coordinates":[34.02125,48.47546]}},
{"type":"Feature","properties":{"josm":"w202260952","name":"11","region":"Дніпропетровська область"},"geometry":{"type":"Point","coordinates":[34.02359,48.47579]}},
{"type":"Feature","properties":{"josm":"w202260953","name":"25","region":"Дніпропетровська область"},"geometry":{"type":"Point","coordinates":[34.02946,48.47311]}},
{"type":"Feature","properties":{"josm":"w202260954","name":"8","region":"Дніпропетровська область"},"geometry":{"type":"Point","coordinates":[34.02195,48.47558]}},
{"type":"Feature","properties":{"josm":"w202260955","name":"21","region":"Дніпропетровська область"},"geometry":{"type":"Point","coordinates":[34.03189,48.47345]}},
{"type":"Feature","properties":{"josm":"w202260957","name":"22","region":"Дніпропетровська область"},"geometry":{"type":"Point","coordinates":[34.02799,48.4748]}},
{"type":"Feature","properties":{"josm":"w202338497","name":"13","region":"Дніпропетровська область"},"geometry":{"type":"Point","coordinates":[34.02296,48.47412]}},
{"type":"Feature","properties":{"josm":"w202338505","name":"21","region":"Дніпропетровська область"},"geometry":{"type":"Point","coordinates":[34.02927,48.47602]}},
{"type":"Feature","properties":{"josm":"w202338507","name":"9","region":"Дніпропетровська область"},"geometry":{"type":"Point","coordinates":[34.02154,48.47475]}},
{"type":"Feature","properties":{"josm":"w202338519","name":"21","region":"Дніпропетровська область"},"geometry":{"type":"Point","coordinates":[34.02776,48.47629]}},
{"type":"Feature","properties":{"josm":"w202338520","name":"21","region":"Дніпропетровська область"},"geometry":{"type":"Point","coordinates":[34.02961,48.47656]}},
{"type":"Feature","properties":{"josm":"w202338521","name":"21","region":"Дніпропетровська область"},"geometry":{"type":"Point","coordinates":[34.02938,48.47652]}},
{"type":"Feature","properties":{"josm":"w202338522","name":"21","region":"Дніпропетровська область"},"geometry":{"type":"Point","coordinates":[34.0289,48.47647]}},
{"type":"Feature","properties":{"josm":"w202338523","name":"9","region":"Дніпропетровська область"},"geometry":{"type":"Point","coordinates":[34.02215,48.47509]}},
{"type":"Feature","properties":{"josm":"w203402420","name":"16","region":"Дніпропетровська область"},"geometry":{"type":"Point","coordinates":[34.02092,48.47285]}},
{"type":"Feature","properties":{"josm":"w203402422","name":"23","region":"Дніпропетровська область"},"geometry":{"type":"Point","coordinates":[34.02869,48.47411]}},
{"type":"Feature","properties":{"josm":"w203402423","name":"10","region":"Дніпропетровська область"},"geometry":{"type":"Point","coordinates":[34.02231,48.47454]}},
{"type":"Feature","properties":{"josm":"w203402425","name":"21","region":"Дніпропетровська область"},"geometry":{"type":"Point","coordinates":[34.0295,48.47375]}},
{"type":"Feature","properties":{"josm":"w203402430","name":"18","region":"Дніпропетровська область"},"geometry":{"type":"Point","coordinates":[34.02488,48.47464]}},
{"type":"Feature","properties":{"josm":"w203402431","name":"16","region":"Дніпропетровська область"},"geometry":{"type":"Point","coordinates":[34.02501,48.47339]}},
{"type":"Feature","properties":{"josm":"w203402435","name":"3","region":"Дніпропетровська область"},"geometry":{"type":"Point","coordinates":[34.02103,48.4746]}},
{"type":"Feature","properties":{"josm":"w205673626","name":"9","region":"Хмельницька область"},"geometry":{"type":"Point","coordinates":[26.95661,49.40526]}},
{"type":"Feature","properties":{"josm":"w209742178","name":"17","region":"Одеська область"},"geometry":{"type":"Point","coordinates":[30.67886,46.46693]}},
{"type":"Feature","properties":{"josm":"w213216153","name":"9с","region":"Дніпропетровська область"},"geometry":{"type":"Point","coordinates":[33.6201,47.72643]}},
{"type":"Feature","properties":{"josm":"w215788695","name":"67805","region":"Одеська область"},"geometry":{"type":"Point","coordinates":[30.55197,46.3307]}},
{"type":"Feature","properties":{"josm":"w218712318","name":"313","region":"Київська область"},"geometry":{"type":"Point","coordinates":[30.74354,50.1529]}},
{"type":"Feature","properties":{"josm":"w218724610","name":"В`юнка","region":"Чернігівська область"},"geometry":{"type":"Point","coordinates":[32.50839,51.5074]}},
{"type":"Feature","properties":{"josm":"w236009454","name":"1","region":"Донецька область"},"geometry":{"type":"Point","coordinates":[37.18022,46.92582]}},
{"type":"Feature","properties":{"josm":"w236009455","name":"2","region":"Донецька область"},"geometry":{"type":"Point","coordinates":[37.18034,46.9259]}},
{"type":"Feature","properties":{"josm":"w236009456","name":"3","region":"Донецька область"},"geometry":{"type":"Point","coordinates":[37.18054,46.92607]}},
{"type":"Feature","properties":{"josm":"w236009457","name":"4","region":"Донецька область"},"geometry":{"type":"Point","coordinates":[37.18066,46.92616]}},
{"type":"Feature","properties":{"josm":"w236009458","name":"5","region":"Донецька область"},"geometry":{"type":"Point","coordinates":[37.18089,46.92634]}},
{"type":"Feature","properties":{"josm":"w236009459","name":"6","region":"Донецька область"},"geometry":{"type":"Point","coordinates":[37.18101,46.92643]}},
{"type":"Feature","properties":{"josm":"w236009460","name":"7","region":"Донецька область"},"geometry":{"type":"Point","coordinates":[37.1811,46.9265]}},
{"type":"Feature","properties":{"josm":"w252174191","name":"97","region":"Луганська область"},"geometry":{"type":"Point","coordinates":[38.92728,48.16592]}},
{"type":"Feature","properties":{"josm":"w253090472","name":"29","region":"Хмельницька область"},"geometry":{"type":"Point","coordinates":[26.96654,49.40064]}},
{"type":"Feature","properties":{"josm":"w259879180","name":"19","region":"Севастополь"},"geometry":{"type":"Point","coordinates":[33.51731,44.63275]}},
{"type":"Feature","properties":{"josm":"w259879182","name":"17","region":"Севастополь"},"geometry":{"type":"Point","coordinates":[33.51609,44.63196]}},
{"type":"Feature","properties":{"josm":"w262820088","name":"Кам`янка","region":"Житомирська область"},"geometry":{"type":"Point","coordinates":[29.12766,50.94234]}},
{"type":"Feature","properties":{"josm":"w269859991","name":"11","region":"Автономна Республіка Крим"},"geometry":{"type":"Point","coordinates":[35.76787,45.29728]}},
{"type":"Feature","properties":{"josm":"w269860021","name":"3","region":"Автономна Республіка Крим"},"geometry":{"type":"Point","coordinates":[35.76754,45.29535]}},
{"type":"Feature","properties":{"josm":"w269860044","name":"1","region":"Автономна Республіка Крим"},"geometry":{"type":"Point","coordinates":[35.76666,45.29492]}},
{"type":"Feature","properties":{"josm":"w269862091","name":"45","region":"Автономна Республіка Крим"},"geometry":{"type":"Point","coordinates":[35.78682,45.29578]}},
{"type":"Feature","properties":{"josm":"w269862095","name":"39","region":"Автономна Республіка Крим"},"geometry":{"type":"Point","coordinates":[35.78628,45.29543]}},
{"type":"Feature","properties":{"josm":"w269862097","name":"47","region":"Автономна Республіка Крим"},"geometry":{"type":"Point","coordinates":[35.78716,45.29385]}},
{"type":"Feature","properties":{"josm":"w269862100","name":"41","region":"Автономна Республіка Крим"},"geometry":{"type":"Point","coordinates":[35.78647,45.295]}},
{"type":"Feature","properties":{"josm":"w269862101","name":"43","region":"Автономна Республіка Крим"},"geometry":{"type":"Point","coordinates":[35.78642,45.29449]}},
{"type":"Feature","properties":{"josm":"w274721112","name":"174-196","region":"Хмельницька область"},"geometry":{"type":"Point","coordinates":[26.9646,49.41911]}},
{"type":"Feature","properties":{"josm":"w274721113","name":"197-217","region":"Хмельницька область"},"geometry":{"type":"Point","coordinates":[26.96479,49.41904]}},
{"type":"Feature","properties":{"josm":"w274721114","name":"218-236","region":"Хмельницька область"},"geometry":{"type":"Point","coordinates":[26.96488,49.41902]}},
{"type":"Feature","properties":{"josm":"w274721115","name":"237-253","region":"Хмельницька область"},"geometry":{"type":"Point","coordinates":[26.96516,49.41893]}},
{"type":"Feature","properties":{"josm":"w274721116","name":"254-269","region":"Хмельницька область"},"geometry":{"type":"Point","coordinates":[26.96516,49.41893]}},
{"type":"Feature","properties":{"josm":"w274721117","name":"270-282","region":"Хмельницька область"},"geometry":{"type":"Point","coordinates":[26.96554,49.41846]}},
{"type":"Feature","properties":{"josm":"w274721118","name":"273-294","region":"Хмельницька область"},"geometry":{"type":"Point","coordinates":[26.96545,49.41884]}},
{"type":"Feature","properties":{"josm":"w274721119","name":"295-303","region":"Хмельницька область"},"geometry":{"type":"Point","coordinates":[26.96561,49.41879]}},
{"type":"Feature","properties":{"josm":"w274721120","name":"304-311","region":"Хмельницька область"},"geometry":{"type":"Point","coordinates":[26.96572,49.41875]}},
{"type":"Feature","properties":{"josm":"w274721122","name":"312-323","region":"Хмельницька область"},"geometry":{"type":"Point","coordinates":[26.96599,49.41869]}},
{"type":"Feature","properties":{"josm":"w274730620","name":"108-113","region":"Хмельницька область"},"geometry":{"type":"Point","coordinates":[26.96141,49.41682]}},
{"type":"Feature","properties":{"josm":"w274730621","name":"115-118","region":"Хмельницька область"},"geometry":{"type":"Point","coordinates":[26.96121,49.4168]}},
{"type":"Feature","properties":{"josm":"w274730622","name":"119-121","region":"Хмельницька область"},"geometry":{"type":"Point","coordinates":[26.96124,49.41676]}},
{"type":"Feature","properties":{"josm":"w293722454","name":"50","region":"Донецька область"},"geometry":{"type":"Point","coordinates":[38.13798,48.32469]}},
{"type":"Feature","properties":{"josm":"w295051966","name":"27","region":"Київ"},"geometry":{"type":"Point","coordinates":[30.47338,50.36639]}},
{"type":"Feature","properties":{"josm":"w299961539","name":"10","region":"Донецька область"},"geometry":{"type":"Point","coordinates":[37.98534,48.00913]}},
{"type":"Feature","properties":{"josm":"w301827841","name":"4","region":"Донецька область"},"geometry":{"type":"Point","coordinates":[37.20088,48.29566]}},
{"type":"Feature","properties":{"josm":"w301827847","name":"22","region":"Донецька область"},"geometry":{"type":"Point","coordinates":[37.20138,48.29796]}},
{"type":"Feature","properties":{"josm":"w301827848","name":"24","region":"Донецька область"},"geometry":{"type":"Point","coordinates":[37.20166,48.299]}},
{"type":"Feature","properties":{"josm":"w302023457","name":"37","region":"Донецька область"},"geometry":{"type":"Point","coordinates":[37.20433,48.29641]}},
{"type":"Feature","properties":{"josm":"w302786672","name":"38","region":"Донецька область"},"geometry":{"type":"Point","coordinates":[37.20368,48.29673]}},
{"type":"Feature","properties":{"josm":"w302786673","name":"28","region":"Донецька область"},"geometry":{"type":"Point","coordinates":[37.20214,48.29693]}},
{"type":"Feature","properties":{"josm":"w302786675","name":"28А","region":"Донецька область"},"geometry":{"type":"Point","coordinates":[37.20293,48.29679]}},
{"type":"Feature","properties":{"josm":"w302786676","name":"20","region":"Донецька область"},"geometry":{"type":"Point","coordinates":[37.20179,48.29699]}},
{"type":"Feature","properties":{"josm":"w302786677","name":"20А","region":"Донецька область"},"geometry":{"type":"Point","coordinates":[37.20227,48.29672]}},
{"type":"Feature","properties":{"josm":"w302786680","name":"20Б","region":"Донецька область"},"geometry":{"type":"Point","coordinates":[37.20272,48.29661]}},
{"type":"Feature","properties":{"josm":"w302786683","name":"26","region":"Донецька область"},"geometry":{"type":"Point","coordinates":[37.20317,48.29631]}},
{"type":"Feature","properties":{"josm":"w302786685","name":"26А","region":"Донецька область"},"geometry":{"type":"Point","coordinates":[37.2032,48.2963]}},
{"type":"Feature","properties":{"josm":"w302786686","name":"18","region":"Донецька область"},"geometry":{"type":"Point","coordinates":[37.20103,48.2969]}},
{"type":"Feature","properties":{"josm":"w303289090","name":"10","region":"Донецька область"},"geometry":{"type":"Point","coordinates":[37.20118,48.29407]}},
{"type":"Feature","properties":{"josm":"w303289091","name":"14","region":"Донецька область"},"geometry":{"type":"Point","coordinates":[37.20137,48.29467]}},
{"type":"Feature","properties":{"josm":"w303289092","name":"2","region":"Донецька область"},"geometry":{"type":"Point","coordinates":[37.19983,48.29323]}},
{"type":"Feature","properties":{"josm":"w303289094","name":"4","region":"Донецька область"},"geometry":{"type":"Point","coordinates":[37.19992,48.29359]}},
{"type":"Feature","properties":{"josm":"w303289097","name":"6","region":"Донецька область"},"geometry":{"type":"Point","coordinates":[37.20006,48.29395]}},
{"type":"Feature","properties":{"josm":"w303289099","name":"8","region":"Донецька область"},"geometry":{"type":"Point","coordinates":[37.20017,48.2943]}},
{"type":"Feature","properties":{"josm":"w303289102","name":"12","region":"Донецька область"},"geometry":{"type":"Point","coordinates":[37.20027,48.29464]}},
{"type":"Feature","properties":{"josm":"w304375142","name":"2","region":"Хмельницька область"},"geometry":{"type":"Point","coordinates":[27.22941,49.01525]}},
{"type":"Feature","properties":{"josm":"w307692994","name":"16","region":"Тернопільська область"},"geometry":{"type":"Point","coordinates":[25.59329,49.54253]}},
{"type":"Feature","properties":{"josm":"w309393074","name":"19","region":"Донецька область"},"geometry":{"type":"Point","coordinates":[37.20065,48.29917]}},
{"type":"Feature","properties":{"josm":"w309393080","name":"17","region":"Донецька область"},"geometry":{"type":"Point","coordinates":[37.2003,48.29816]}},
{"type":"Feature","properties":{"josm":"w313464688","name":"14","region":"Донецька область"},"geometry":{"type":"Point","coordinates":[37.19807,48.29572]}},
{"type":"Feature","properties":{"josm":"w313464689","name":"8","region":"Донецька область"},"geometry":{"type":"Point","coordinates":[37.19766,48.2944]}},
{"type":"Feature","properties":{"josm":"w313464690","name":"1","region":"Донецька область"},"geometry":{"type":"Point","coordinates":[37.19893,48.29557]}},
{"type":"Feature","properties":{"josm":"w313464691","name":"2","region":"Донецька область"},"geometry":{"type":"Point","coordinates":[37.19744,48.29362]}},
{"type":"Feature","properties":{"josm":"w313464694","name":"7","region":"Донецька область"},"geometry":{"type":"Point","coordinates":[37.19941,48.29376]}},
{"type":"Feature","properties":{"josm":"w313464695","name":"10","region":"Донецька область"},"geometry":{"type":"Point","coordinates":[37.19778,48.2948]}},
{"type":"Feature","properties":{"josm":"w313464697","name":"12","region":"Донецька область"},"geometry":{"type":"Point","coordinates":[37.1979,48.2952]}},
{"type":"Feature","properties":{"josm":"w313464699","name":"11","region":"Донецька область"},"geometry":{"type":"Point","coordinates":[37.19965,48.29455]}},
{"type":"Feature","properties":{"josm":"w313464701","name":"15","region":"Донецька область"},"geometry":{"type":"Point","coordinates":[37.19988,48.29545]}},
{"type":"Feature","properties":{"josm":"w313464703","name":"9","region":"Донецька область"},"geometry":{"type":"Point","coordinates":[37.19948,48.29394]}},
{"type":"Feature","properties":{"josm":"w313464704","name":"13","region":"Донецька область"},"geometry":{"type":"Point","coordinates":[37.19971,48.29473]}},
{"type":"Feature","properties":{"josm":"w313464705","name":"6","region":"Донецька область"},"geometry":{"type":"Point","coordinates":[37.19754,48.29402]}},
{"type":"Feature","properties":{"josm":"w313464706","name":"1","region":"Донецька область"},"geometry":{"type":"Point","coordinates":[37.19919,48.29316]}},
{"type":"Feature","properties":{"josm":"w314082092","name":"21","region":"Дніпропетровська область"},"geometry":{"type":"Point","coordinates":[34.94238,48.46785]}},
{"type":"Feature","properties":{"josm":"w315134419","name":"55","region":"Хмельницька область"},"geometry":{"type":"Point","coordinates":[26.98603,49.41194]}},
{"type":"Feature","properties":{"josm":"w316933677","name":"13","region":"Автономна Республіка Крим"},"geometry":{"type":"Point","coordinates":[35.78587,45.29715]}},
{"type":"Feature","properties":{"josm":"w317389418","name":"18","region":"Дніпропетровська область"},"geometry":{"type":"Point","coordinates":[34.94481,48.46802]}},
{"type":"Feature","properties":{"josm":"w324145585","name":"33","region":"Луганська область"},"geometry":{"type":"Point","coordinates":[38.18629,49.02613]}},
{"type":"Feature","properties":{"josm":"w324145586","name":"34","region":"Луганська область"},"geometry":{"type":"Point","coordinates":[38.18608,49.02607]}},
{"type":"Feature","properties":{"josm":"w331511797","name":"1","region":"Донецька область"},"geometry":{"type":"Point","coordinates":[37.20306,48.29874]}},
{"type":"Feature","properties":{"josm":"w332554530","name":"7","region":"Автономна Республіка Крим"},"geometry":{"type":"Point","coordinates":[35.78639,45.29647]}},
{"type":"Feature","properties":{"josm":"w332554570","name":"15","region":"Автономна Республіка Крим"},"geometry":{"type":"Point","coordinates":[35.78639,45.29764]}},
{"type":"Feature","properties":{"josm":"w334683842","name":"5","region":"Донецька область"},"geometry":{"type":"Point","coordinates":[37.20817,48.29382]}},
{"type":"Feature","properties":{"josm":"w334683843","name":"3","region":"Донецька область"},"geometry":{"type":"Point","coordinates":[37.20856,48.29389]}},
{"type":"Feature","properties":{"josm":"w334686426","name":"2","region":"Донецька область"},"geometry":{"type":"Point","coordinates":[37.20867,48.29535]}},
{"type":"Feature","properties":{"josm":"w334686427","name":"4","region":"Донецька область"},"geometry":{"type":"Point","coordinates":[37.20809,48.29526]}},
{"type":"Feature","properties":{"josm":"w334686428","name":"6","region":"Донецька область"},"geometry":{"type":"Point","coordinates":[37.2077,48.29519]}},
{"type":"Feature","properties":{"josm":"w337471413","name":"7а","region":"Чернігівська область"},"geometry":{"type":"Point","coordinates":[32.40758,50.57178]}},
{"type":"Feature","properties":{"josm":"w338532950","name":"47","region":"Чернігівська область"},"geometry":{"type":"Point","coordinates":[32.28362,51.77351]}},
{"type":"Feature","properties":{"josm":"w338532951","name":"57","region":"Чернігівська область"},"geometry":{"type":"Point","coordinates":[32.28654,51.77374]}},
{"type":"Feature","properties":{"josm":"w338535365","name":"4","region":"Чернігівська область"},"geometry":{"type":"Point","coordinates":[32.26646,51.77349]}},
{"type":"Feature","properties":{"josm":"w340967651","name":"10","region":"Одеська область"},"geometry":{"type":"Point","coordinates":[30.72053,46.40424]}},
{"type":"Feature","properties":{"josm":"w340967653","name":"14","region":"Одеська область"},"geometry":{"type":"Point","coordinates":[30.71996,46.40279]}},
{"type":"Feature","properties":{"josm":"w41320291","name":"1","region":"Київ"},"geometry":{"type":"Point","coordinates":[30.47905,50.37785]}},
{"type":"Feature","properties":{"josm":"w41320292","name":"5","region":"Київ"},"geometry":{"type":"Point","coordinates":[30.47872,50.37947]}},
{"type":"Feature","properties":{"josm":"w41320293","name":"7","region":"Київ"},"geometry":{"type":"Point","coordinates":[30.48004,50.3794]}},
{"type":"Feature","properties":{"josm":"w41320294","name":"3","region":"Київ"},"geometry":{"type":"Point","coordinates":[30.47956,50.3786]}},
{"type":"Feature","properties":{"josm":"w41320295","name":"6","region":"Київ"},"geometry":{"type":"Point","coordinates":[30.47699,50.37879]}},
{"type":"Feature","properties":{"josm":"w41320296","name":"8","region":"Київ"},"geometry":{"type":"Point","coordinates":[30.47576,50.37828]}},
{"type":"Feature","properties":{"josm":"w41320297","name":"4","region":"Київ"},"geometry":{"type":"Point","coordinates":[30.47659,50.37744]}},
{"type":"Feature","properties":{"josm":"w41320298","name":"2","region":"Київ"},"geometry":{"type":"Point","coordinates":[30.47784,50.37793]}},
{"type":"Feature","properties":{"josm":"w41320299","name":"12","region":"Київ"},"geometry":{"type":"Point","coordinates":[30.47622,50.37648]}},
{"type":"Feature","properties":{"josm":"w41320300","name":"9","region":"Київ"},"geometry":{"type":"Point","coordinates":[30.48197,50.38021]}},
{"type":"Feature","properties":{"josm":"w41320301","name":"10","region":"Київ"},"geometry":{"type":"Point","coordinates":[30.47572,50.3776]}},
{"type":"Feature","properties":{"josm":"w41320304","name":"11","region":"Київ"},"geometry":{"type":"Point","coordinates":[30.48188,50.38067]}},
{"type":"Feature","properties":{"josm":"w41320305","name":"17","region":"Київ"},"geometry":{"type":"Point","coordinates":[30.48354,50.37878]}},
{"type":"Feature","properties":{"josm":"w91630958","name":"3-8","region":"Автономна Республіка Крим"},"geometry":{"type":"Point","coordinates":[34.06233,44.92959]}},
{"type":"Feature","properties":{"josm":"w97541295","name":"72","region":"Автономна Республіка Крим"},"geometry":{"type":"Point","coordinates":[34.3042,45.50844]}},
{"type":"Feature","properties":{"josm":"w97541299","name":"70","region":"Автономна Республіка Крим"},"geometry":{"type":"Point","coordinates":[34.30435,45.50851]}},
{"type":"Feature","properties":{"josm":"w97541350","name":"36","region":"Автономна Республіка Крим"},"geometry":{"type":"Point","coordinates":[34.30585,45.50991]}},
{"type":"Feature","properties":{"josm":"w97541359","name":"38","region":"Автономна Республіка Крим"},"geometry":{"type":"Point","coordinates":[34.3054,45.51054]}},
{"type":"Feature","properties":{"josm":"w97541365","name":"40","region":"Автономна Республіка Крим"},"geometry":{"type":"Point","coordinates":[34.30511,45.51007]}},
{"type":"Feature","properties":{"josm":"w97541413","name":"27","region":"Автономна Республіка Крим"},"geometry":{"type":"Point","coordinates":[34.30638,45.51069]}},
{"type":"Feature","properties":{"josm":"w97541421","name":"29","region":"Автономна Республіка Крим"},"geometry":{"type":"Point","coordinates":[34.3063,45.51127]}},
{"type":"Feature","properties":{"josm":"w97541427","name":"31","region":"Автономна Республіка Крим"},"geometry":{"type":"Point","coordinates":[34.30609,45.51141]}},
{"type":"Feature","properties":{"josm":"w97541443","name":"13","region":"Автономна Республіка Крим"},"geometry":{"type":"Point","coordinates":[34.31023,45.51382]}},
{"type":"Feature","properties":{"josm":"w97541451","name":"11","region":"Автономна Республіка Крим"},"geometry":{"type":"Point","coordinates":[34.30939,45.51369]}},
{"type":"Feature","properties":{"josm":"w97541459","name":"33","region":"Автономна Республіка Крим"},"geometry":{"type":"Point","coordinates":[34.31009,45.51355]}},
{"type":"Feature","properties":{"josm":"w97541492","name":"17","region":"Автономна Республіка Крим"},"geometry":{"type":"Point","coordinates":[34.3108,45.51357]}},
{"type":"Feature","properties":{"josm":"w97541495","name":"19","region":"Автономна Республіка Крим"},"geometry":{"type":"Point","coordinates":[34.31061,45.51297]}},
{"type":"Feature","properties":{"josm":"w97541501","name":"23","region":"Автономна Республіка Крим"},"geometry":{"type":"Point","coordinates":[34.31195,45.51323]}},
{"type":"Feature","properties":{"josm":"w97541504","name":"104","region":"Автономна Республіка Крим"},"geometry":{"type":"Point","coordinates":[34.31147,45.51302]}},
{"type":"Feature","properties":{"josm":"w97541516","name":"35","region":"Автономна Республіка Крим"},"geometry":{"type":"Point","coordinates":[34.31145,45.51219]}},

{"type":"Feature","properties":{"josm":"w115297502","addrhousenumber":"1a","region":"Дніпропетровська область"},"geometry":{"type":"Point","coordinates":[33.33677,47.90709]}},
{"type":"Feature","properties":{"josm":"w130871821","addrhousenumber":"53a","region":"Дніпропетровська область"},"geometry":{"type":"Point","coordinates":[33.3362,47.90905]}},
{"type":"Feature","properties":{"josm":"w142525791","addrhousenumber":"74 г","region":"Донецька область"},"geometry":{"type":"Point","coordinates":[37.17172,47.16735]}},
{"type":"Feature","properties":{"josm":"w144526100","addrhousenumber":"34a","region":"Волинська область"},"geometry":{"type":"Point","coordinates":[24.32203,50.86555]}},
{"type":"Feature","properties":{"josm":"w144550903","addrhousenumber":"48a","region":"Волинська область"},"geometry":{"type":"Point","coordinates":[24.3206,50.86649]}},
{"type":"Feature","properties":{"josm":"w145344121","addrhousenumber":"4a","region":"Волинська область"},"geometry":{"type":"Point","coordinates":[24.3196,50.84906]}},
{"type":"Feature","properties":{"josm":"w149886997","addrhousenumber":"287-а","region":"Вінницька область"},"geometry":{"type":"Point","coordinates":[28.52104,49.21306]}},
{"type":"Feature","properties":{"josm":"w154154960","addrhousenumber":"66a","region":"Запорізька область"},"geometry":{"type":"Point","coordinates":[35.07082,47.89395]}},
{"type":"Feature","properties":{"josm":"w154166558","addrhousenumber":"7a","region":"Львівська область"},"geometry":{"type":"Point","coordinates":[24.01035,49.78629]}},
{"type":"Feature","properties":{"josm":"w168858904","addrhousenumber":"45 Б","region":"Автономна Республіка Крим"},"geometry":{"type":"Point","coordinates":[34.98345,44.84703]}},
{"type":"Feature","properties":{"josm":"w169100100","addrhousenumber":"1-Б","region":"Луганська область"},"geometry":{"type":"Point","coordinates":[39.29852,48.56918]}},
{"type":"Feature","properties":{"josm":"w169100111","addrhousenumber":"1-Б","region":"Луганська область"},"geometry":{"type":"Point","coordinates":[39.29768,48.56953]}},
{"type":"Feature","properties":{"josm":"w169100116","addrhousenumber":"1-Б","region":"Луганська область"},"geometry":{"type":"Point","coordinates":[39.298,48.56915]}},
{"type":"Feature","properties":{"josm":"w177864687","addrhousenumber":"1-о","region":"Автономна Республіка Крим"},"geometry":{"type":"Point","coordinates":[34.39946,44.67384]}},
{"type":"Feature","properties":{"josm":"w179620214","addrhousenumber":"4a","region":"Одеська область"},"geometry":{"type":"Point","coordinates":[30.78736,46.56894]}},
{"type":"Feature","properties":{"josm":"w186573794","addrhousenumber":"27c","region":"Дніпропетровська область"},"geometry":{"type":"Point","coordinates":[35.08238,48.53082]}},
{"type":"Feature","properties":{"josm":"w203252943","addrhousenumber":"20a","region":"Дніпропетровська область"},"geometry":{"type":"Point","coordinates":[35.00689,48.43123]}},
{"type":"Feature","properties":{"josm":"w229977932","addrhousenumber":"18 е","region":"Автономна Республіка Крим"},"geometry":{"type":"Point","coordinates":[34.14963,44.48678]}},
{"type":"Feature","properties":{"josm":"w236736425","addrhousenumber":"54-1-A","region":"Івано-Франківська область"},"geometry":{"type":"Point","coordinates":[25.05583,48.53486]}},
{"type":"Feature","properties":{"josm":"w241964642","addrhousenumber":"150a","region":"Волинська область"},"geometry":{"type":"Point","coordinates":[24.33255,50.83414]}},
{"type":"Feature","properties":{"josm":"w262352429","addrhousenumber":"94/А","region":"Херсонська область"},"geometry":{"type":"Point","coordinates":[32.58151,46.64549]}},
{"type":"Feature","properties":{"josm":"w269208326","addrhousenumber":"20-а","region":"Автономна Республіка Крим"},"geometry":{"type":"Point","coordinates":[34.73765,45.43876]}},
{"type":"Feature","properties":{"josm":"w269208445","addrhousenumber":"20-а","region":"Автономна Республіка Крим"},"geometry":{"type":"Point","coordinates":[34.73765,45.43876]}},
{"type":"Feature","properties":{"josm":"w272972139","addrhousenumber":"331-Б","region":"Київська область"},"geometry":{"type":"Point","coordinates":[29.9416,50.64589]}},
{"type":"Feature","properties":{"josm":"w274501093","addrhousenumber":"138-Б","region":"Львівська область"},"geometry":{"type":"Point","coordinates":[23.99101,49.82655]}},
{"type":"Feature","properties":{"josm":"w279068345","addrhousenumber":"48-Г","region":"Донецька область"},"geometry":{"type":"Point","coordinates":[37.59065,48.73403]}},
{"type":"Feature","properties":{"josm":"w280648696","addrhousenumber":"66 Б","region":"Рівненська область"},"geometry":{"type":"Point","coordinates":[26.73625,50.99878]}},
{"type":"Feature","properties":{"josm":"w286517202","addrhousenumber":"21a","region":"Чернігівська область"},"geometry":{"type":"Point","coordinates":[31.28022,51.50387]}},
{"type":"Feature","properties":{"josm":"w287582730","addrhousenumber":"23-и","region":"Автономна Республіка Крим"},"geometry":{"type":"Point","coordinates":[35.37688,45.04864]}},
{"type":"Feature","properties":{"josm":"w287592354","addrhousenumber":"1-б","region":"Автономна Республіка Крим"},"geometry":{"type":"Point","coordinates":[35.3818,45.03767]}},
{"type":"Feature","properties":{"josm":"w292603236","addrhousenumber":"28A","region":"Івано-Франківська область"},"geometry":{"type":"Point","coordinates":[23.96636,48.97325]}},
{"type":"Feature","properties":{"josm":"w292603373","addrhousenumber":"8A","region":"Івано-Франківська область"},"geometry":{"type":"Point","coordinates":[23.96596,48.97269]}},
{"type":"Feature","properties":{"josm":"w292833066","addrhousenumber":"1-О","region":"Київська область"},"geometry":{"type":"Point","coordinates":[30.22678,50.50788]}},
{"type":"Feature","properties":{"josm":"w292833150","addrhousenumber":"1-Т","region":"Київська область"},"geometry":{"type":"Point","coordinates":[30.22616,50.50782]}},
{"type":"Feature","properties":{"josm":"w292833348","addrhousenumber":"1-Р","region":"Київська область"},"geometry":{"type":"Point","coordinates":[30.22751,50.50758]}},
{"type":"Feature","properties":{"josm":"w297879181","addrhousenumber":"29/а","region":"Івано-Франківська область"},"geometry":{"type":"Point","coordinates":[24.55317,48.63206]}},
{"type":"Feature","properties":{"josm":"w299386230","addrhousenumber":"24-Б","region":"Луганська область"},"geometry":{"type":"Point","coordinates":[39.32323,48.56839]}},
{"type":"Feature","properties":{"josm":"w299590498","addrhousenumber":"33-А","region":"Луганська область"},"geometry":{"type":"Point","coordinates":[39.3216,48.56782]}},
{"type":"Feature","properties":{"josm":"w299590535","addrhousenumber":"7-Б","region":"Луганська область"},"geometry":{"type":"Point","coordinates":[39.32347,48.5624]}},
{"type":"Feature","properties":{"josm":"w299747993","addrhousenumber":"7-Е","region":"Луганська область"},"geometry":{"type":"Point","coordinates":[39.32209,48.56282]}},
{"type":"Feature","properties":{"josm":"w299747994","addrhousenumber":"7-А","region":"Луганська область"},"geometry":{"type":"Point","coordinates":[39.32183,48.56272]}},
{"type":"Feature","properties":{"josm":"w299747996","addrhousenumber":"5-А","region":"Луганська область"},"geometry":{"type":"Point","coordinates":[39.31976,48.56284]}},
{"type":"Feature","properties":{"josm":"w299748001","addrhousenumber":"4-Л","region":"Луганська область"},"geometry":{"type":"Point","coordinates":[39.31787,48.56078]}},
{"type":"Feature","properties":{"josm":"w299748014","addrhousenumber":"147-А","region":"Луганська область"},"geometry":{"type":"Point","coordinates":[39.31917,48.55639]}},
{"type":"Feature","properties":{"josm":"w299923325","addrhousenumber":"7-А","region":"Луганська область"},"geometry":{"type":"Point","coordinates":[39.31593,48.56125]}},
{"type":"Feature","properties":{"josm":"w299923342","addrhousenumber":"4-А","region":"Луганська область"},"geometry":{"type":"Point","coordinates":[39.31191,48.56195]}},
{"type":"Feature","properties":{"josm":"w299923343","addrhousenumber":"4-Б","region":"Луганська область"},"geometry":{"type":"Point","coordinates":[39.31403,48.56154]}},
{"type":"Feature","properties":{"josm":"w300116045","addrhousenumber":"73-А","region":"Луганська область"},"geometry":{"type":"Point","coordinates":[39.31752,48.56985]}},
{"type":"Feature","properties":{"josm":"w300116052","addrhousenumber":"16-А","region":"Луганська область"},"geometry":{"type":"Point","coordinates":[39.31532,48.57404]}},
{"type":"Feature","properties":{"josm":"w300387298","addrhousenumber":"7-Б","region":"Луганська область"},"geometry":{"type":"Point","coordinates":[39.31359,48.57323]}},
{"type":"Feature","properties":{"josm":"w300387345","addrhousenumber":"7-А","region":"Луганська область"},"geometry":{"type":"Point","coordinates":[39.31363,48.57325]}},
{"type":"Feature","properties":{"josm":"w300550669","addrhousenumber":"7-а","region":"Запорізька область"},"geometry":{"type":"Point","coordinates":[35.22929,47.78378]}},
{"type":"Feature","properties":{"josm":"w300623070","addrhousenumber":"111-а","region":"Запорізька область"},"geometry":{"type":"Point","coordinates":[35.15762,47.83146]}},
{"type":"Feature","properties":{"josm":"w300872017","addrhousenumber":"82-Б","region":"Луганська область"},"geometry":{"type":"Point","coordinates":[39.29723,48.55803]}},
{"type":"Feature","properties":{"josm":"w300872024","addrhousenumber":"82-В","region":"Луганська область"},"geometry":{"type":"Point","coordinates":[39.29757,48.55808]}},
{"type":"Feature","properties":{"josm":"w300872028","addrhousenumber":"82-А","region":"Луганська область"},"geometry":{"type":"Point","coordinates":[39.29783,48.55854]}},
{"type":"Feature","properties":{"josm":"w300872036","addrhousenumber":"86-А","region":"Луганська область"},"geometry":{"type":"Point","coordinates":[39.29731,48.55638]}},
{"type":"Feature","properties":{"josm":"w300872040","addrhousenumber":"84-А","region":"Луганська область"},"geometry":{"type":"Point","coordinates":[39.29726,48.5573]}},
{"type":"Feature","properties":{"josm":"w302351292","addrhousenumber":"46-А","region":"Луганська область"},"geometry":{"type":"Point","coordinates":[39.29885,48.56724]}},
{"type":"Feature","properties":{"josm":"w302351293","addrhousenumber":"1-А","region":"Луганська область"},"geometry":{"type":"Point","coordinates":[39.29852,48.56716]}},
{"type":"Feature","properties":{"josm":"w302351296","addrhousenumber":"2-Г","region":"Луганська область"},"geometry":{"type":"Point","coordinates":[39.2995,48.56693]}},
{"type":"Feature","properties":{"josm":"w302351325","addrhousenumber":"21-А","region":"Луганська область"},"geometry":{"type":"Point","coordinates":[39.30179,48.56621]}},
{"type":"Feature","properties":{"josm":"w304153359","addrhousenumber":"111-А","region":"Луганська область"},"geometry":{"type":"Point","coordinates":[39.33666,48.57716]}},
{"type":"Feature","properties":{"josm":"w304246711","addrhousenumber":"84 А","region":"Черкаська область"},"geometry":{"type":"Point","coordinates":[29.80729,48.87966]}},
{"type":"Feature","properties":{"josm":"w308206011","addrhousenumber":"173 А","region":"Луганська область"},"geometry":{"type":"Point","coordinates":[38.54278,48.8797]}},
{"type":"Feature","properties":{"josm":"w308206720","addrhousenumber":"143 А","region":"Луганська область"},"geometry":{"type":"Point","coordinates":[38.54291,48.87682]}},
{"type":"Feature","properties":{"josm":"w308209070","addrhousenumber":"127 А","region":"Луганська область"},"geometry":{"type":"Point","coordinates":[38.54315,48.87541]}},
{"type":"Feature","properties":{"josm":"w308209074","addrhousenumber":"125 А","region":"Луганська область"},"geometry":{"type":"Point","coordinates":[38.54325,48.87505]}},
{"type":"Feature","properties":{"josm":"w308209124","addrhousenumber":"102 А","region":"Луганська область"},"geometry":{"type":"Point","coordinates":[38.54362,48.87463]}},
{"type":"Feature","properties":{"josm":"w308299167","addrhousenumber":"96 А","region":"Луганська область"},"geometry":{"type":"Point","coordinates":[38.54364,48.87398]}},
{"type":"Feature","properties":{"josm":"w308302693","addrhousenumber":"14 А","region":"Луганська область"},"geometry":{"type":"Point","coordinates":[38.56564,48.85375]}},
{"type":"Feature","properties":{"josm":"w308306259","addrhousenumber":"85 А","region":"Луганська область"},"geometry":{"type":"Point","coordinates":[38.44432,48.92238]}},
{"type":"Feature","properties":{"josm":"w309354116","addrhousenumber":"136 А","region":"Луганська область"},"geometry":{"type":"Point","coordinates":[38.54345,48.87785]}},
{"type":"Feature","properties":{"josm":"w309369795","addrhousenumber":"9 а","region":"Луганська область"},"geometry":{"type":"Point","coordinates":[38.5528,48.86493]}},
{"type":"Feature","properties":{"josm":"w309370382","addrhousenumber":"59 а","region":"Луганська область"},"geometry":{"type":"Point","coordinates":[38.54741,48.86831]}},
{"type":"Feature","properties":{"josm":"w309489665","addrhousenumber":"41 А","region":"Луганська область"},"geometry":{"type":"Point","coordinates":[38.58146,48.856]}},
{"type":"Feature","properties":{"josm":"w309495158","addrhousenumber":"89 А","region":"Луганська область"},"geometry":{"type":"Point","coordinates":[38.56836,48.85533]}},
{"type":"Feature","properties":{"josm":"w309495388","addrhousenumber":"2 А","region":"Луганська область"},"geometry":{"type":"Point","coordinates":[38.56602,48.85653]}},
{"type":"Feature","properties":{"josm":"w309515586","addrhousenumber":"79 А","region":"Луганська область"},"geometry":{"type":"Point","coordinates":[38.56716,48.85619]}},
{"type":"Feature","properties":{"josm":"w309662499","addrhousenumber":"128 А","region":"Луганська область"},"geometry":{"type":"Point","coordinates":[38.56034,48.87752]}},
{"type":"Feature","properties":{"josm":"w309662816","addrhousenumber":"5 А","region":"Луганська область"},"geometry":{"type":"Point","coordinates":[38.56306,48.87632]}},
{"type":"Feature","properties":{"josm":"w310140498","addrhousenumber":"115 А","region":"Луганська область"},"geometry":{"type":"Point","coordinates":[38.54687,48.87752]}},
{"type":"Feature","properties":{"josm":"w310140812","addrhousenumber":"103 А","region":"Луганська область"},"geometry":{"type":"Point","coordinates":[38.54935,48.87613]}},
{"type":"Feature","properties":{"josm":"w310367206","addrhousenumber":"103 Б","region":"Луганська область"},"geometry":{"type":"Point","coordinates":[38.54915,48.87626]}},
{"type":"Feature","properties":{"josm":"w310367419","addrhousenumber":"105 А","region":"Луганська область"},"geometry":{"type":"Point","coordinates":[38.54841,48.87668]}},
{"type":"Feature","properties":{"josm":"w310369529","addrhousenumber":"126 А","region":"Луганська область"},"geometry":{"type":"Point","coordinates":[38.54328,48.87674]}},
{"type":"Feature","properties":{"josm":"w310378599","addrhousenumber":"97 А","region":"Луганська область"},"geometry":{"type":"Point","coordinates":[38.55162,48.87416]}},
{"type":"Feature","properties":{"josm":"w310699626","addrhousenumber":"136 А","region":"Луганська область"},"geometry":{"type":"Point","coordinates":[38.56052,48.8783]}},
{"type":"Feature","properties":{"josm":"w310703611","addrhousenumber":"3 А","region":"Луганська область"},"geometry":{"type":"Point","coordinates":[38.56193,48.8764]}},
{"type":"Feature","properties":{"josm":"w310741318","addrhousenumber":"35 А","region":"Луганська область"},"geometry":{"type":"Point","coordinates":[38.53994,48.87239]}},
{"type":"Feature","properties":{"josm":"w310793130","addrhousenumber":"4 Б","region":"Луганська область"},"geometry":{"type":"Point","coordinates":[38.47263,48.94688]}},
{"type":"Feature","properties":{"josm":"w311039868","addrhousenumber":"5 А","region":"Луганська область"},"geometry":{"type":"Point","coordinates":[38.5564,48.88157]}},
{"type":"Feature","properties":{"josm":"w311048436","addrhousenumber":"135 А","region":"Луганська область"},"geometry":{"type":"Point","coordinates":[38.55996,48.87872]}},
{"type":"Feature","properties":{"josm":"w311049436","addrhousenumber":"7 А","region":"Луганська область"},"geometry":{"type":"Point","coordinates":[38.56175,48.85599]}},
{"type":"Feature","properties":{"josm":"w311156295","addrhousenumber":"23 В","region":"Луганська область"},"geometry":{"type":"Point","coordinates":[38.52578,48.93146]}},
{"type":"Feature","properties":{"josm":"w311490769","addrhousenumber":"152 А","region":"Луганська область"},"geometry":{"type":"Point","coordinates":[38.56084,48.88011]}},
{"type":"Feature","properties":{"josm":"w311527827","addrhousenumber":"3 Г","region":"Луганська область"},"geometry":{"type":"Point","coordinates":[38.47054,48.94645]}},
{"type":"Feature","properties":{"josm":"w311527847","addrhousenumber":"3 С","region":"Луганська область"},"geometry":{"type":"Point","coordinates":[38.47094,48.94588]}},
{"type":"Feature","properties":{"josm":"w311529653","addrhousenumber":"37 П","region":"Луганська область"},"geometry":{"type":"Point","coordinates":[38.48531,48.93709]}},
{"type":"Feature","properties":{"josm":"w311530528","addrhousenumber":"25 А","region":"Луганська область"},"geometry":{"type":"Point","coordinates":[38.52445,48.9308]}},
{"type":"Feature","properties":{"josm":"w311815294","addrhousenumber":"115 А","region":"Луганська область"},"geometry":{"type":"Point","coordinates":[38.54526,48.87789]}},
{"type":"Feature","properties":{"josm":"w311823219","addrhousenumber":"111 А","region":"Луганська область"},"geometry":{"type":"Point","coordinates":[38.5479,48.87712]}},
{"type":"Feature","properties":{"josm":"w311823766","addrhousenumber":"101 А","region":"Луганська область"},"geometry":{"type":"Point","coordinates":[38.551,48.87487]}},
{"type":"Feature","properties":{"josm":"w313290220","addrhousenumber":"34-А","region":"Хмельницька область"},"geometry":{"type":"Point","coordinates":[26.85667,50.28115]}},
{"type":"Feature","properties":{"josm":"w313601210","addrhousenumber":"5a","region":"Луганська область"},"geometry":{"type":"Point","coordinates":[38.57192,48.97915]}},
{"type":"Feature","properties":{"josm":"w314653648","addrhousenumber":"1к2","region":"Херсонська область"},"geometry":{"type":"Point","coordinates":[32.56141,46.64171]}},
{"type":"Feature","properties":{"josm":"w314653651","addrhousenumber":"1к1","region":"Херсонська область"},"geometry":{"type":"Point","coordinates":[32.5618,46.64096]}},
{"type":"Feature","properties":{"josm":"w315075295","addrhousenumber":"2 Г","region":"Луганська область"},"geometry":{"type":"Point","coordinates":[38.51699,48.94775]}},
{"type":"Feature","properties":{"josm":"w315711412","addrhousenumber":"52 А","region":"Луганська область"},"geometry":{"type":"Point","coordinates":[38.56477,48.85883]}},
{"type":"Feature","properties":{"josm":"w316383420","addrhousenumber":"8 в","region":"Житомирська область"},"geometry":{"type":"Point","coordinates":[28.79387,51.32685]}},
{"type":"Feature","properties":{"josm":"w316764189","addrhousenumber":"1-Ю","region":"Київська область"},"geometry":{"type":"Point","coordinates":[30.22587,50.50773]}},
{"type":"Feature","properties":{"josm":"w318338155","addrhousenumber":"2-а","region":"Кіровоградська область"},"geometry":{"type":"Point","coordinates":[32.23689,48.49402]}},
{"type":"Feature","properties":{"josm":"w318338157","addrhousenumber":"2-а","region":"Кіровоградська область"},"geometry":{"type":"Point","coordinates":[32.23658,48.4941]}},
{"type":"Feature","properties":{"josm":"w319020041","addrhousenumber":"12A","region":"Дніпропетровська область"},"geometry":{"type":"Point","coordinates":[34.56963,48.53604]}},
{"type":"Feature","properties":{"josm":"w319020058","addrhousenumber":"3A","region":"Дніпропетровська область"},"geometry":{"type":"Point","coordinates":[34.57219,48.53519]}},
{"type":"Feature","properties":{"josm":"w319146552","addrhousenumber":"7a","region":"Дніпропетровська область"},"geometry":{"type":"Point","coordinates":[33.34068,47.91084]}},
{"type":"Feature","properties":{"josm":"w323235993","addrhousenumber":"2к3","region":"Одеська область"},"geometry":{"type":"Point","coordinates":[30.75589,46.47206]}},
{"type":"Feature","properties":{"josm":"w323277073","addrhousenumber":"4/а","region":"Хмельницька область"},"geometry":{"type":"Point","coordinates":[27.62035,49.37956]}},
{"type":"Feature","properties":{"josm":"w323277322","addrhousenumber":"4/а","region":"Хмельницька область"},"geometry":{"type":"Point","coordinates":[27.61995,49.37932]}},
{"type":"Feature","properties":{"josm":"w324590326","addrhousenumber":"1-а","region":"Донецька область"},"geometry":{"type":"Point","coordinates":[38.03663,48.71457]}},
{"type":"Feature","properties":{"josm":"w325213170","addrhousenumber":"12a","region":"Одеська область"},"geometry":{"type":"Point","coordinates":[30.75559,46.46772]}},
{"type":"Feature","properties":{"josm":"w325441213","addrhousenumber":"37 е","region":"Полтавська область"},"geometry":{"type":"Point","coordinates":[34.53629,49.5615]}},
{"type":"Feature","properties":{"josm":"w326122068","addrhousenumber":"3a","region":"Полтавська область"},"geometry":{"type":"Point","coordinates":[34.08333,49.56532]}},
{"type":"Feature","properties":{"josm":"w328533672","addrhousenumber":"2a","region":"Житомирська область"},"geometry":{"type":"Point","coordinates":[28.57676,49.89908]}},
{"type":"Feature","properties":{"josm":"w328534230","addrhousenumber":"2a","region":"Житомирська область"},"geometry":{"type":"Point","coordinates":[28.57732,49.89884]}},
{"type":"Feature","properties":{"josm":"w330062733","addrhousenumber":"4B","region":"Рівненська область"},"geometry":{"type":"Point","coordinates":[26.26191,50.61693]}},
{"type":"Feature","properties":{"josm":"w331294498","addrhousenumber":"140 А","region":"Львівська область"},"geometry":{"type":"Point","coordinates":[23.57227,49.2597]}},
{"type":"Feature","properties":{"josm":"w332197093","addrhousenumber":"198a","region":"Донецька область"},"geometry":{"type":"Point","coordinates":[37.4591,47.58407]}},
{"type":"Feature","properties":{"josm":"w332388714","addrhousenumber":"16B","region":"Автономна Республіка Крим"},"geometry":{"type":"Point","coordinates":[34.91154,44.83019]}},
{"type":"Feature","properties":{"josm":"w332535217","addrhousenumber":"53 б","region":"Дніпропетровська область"},"geometry":{"type":"Point","coordinates":[35.94316,48.6776]}},
{"type":"Feature","properties":{"josm":"w333028048","addrhousenumber":"14-а","region":"Автономна Республіка Крим"},"geometry":{"type":"Point","coordinates":[34.29851,45.5035]}},
{"type":"Feature","properties":{"josm":"w333224772","addrhousenumber":"20a","region":"Дніпропетровська область"},"geometry":{"type":"Point","coordinates":[35.9436,48.68108]}},
{"type":"Feature","properties":{"josm":"w333224774","addrhousenumber":"41a","region":"Дніпропетровська область"},"geometry":{"type":"Point","coordinates":[35.94734,48.67888]}},
{"type":"Feature","properties":{"josm":"w333224776","addrhousenumber":"39a","region":"Дніпропетровська область"},"geometry":{"type":"Point","coordinates":[35.94749,48.67909]}},
{"type":"Feature","properties":{"josm":"w335038596","addrhousenumber":"66-А","region":"Полтавська область"},"geometry":{"type":"Point","coordinates":[34.76564,50.06512]}},
{"type":"Feature","properties":{"josm":"w337175399","addrhousenumber":"9A","region":"Сумська область"},"geometry":{"type":"Point","coordinates":[33.46401,51.86489]}},
{"type":"Feature","properties":{"josm":"w338389295","addrhousenumber":"43 г","region":"Донецька область"},"geometry":{"type":"Point","coordinates":[37.02338,48.73447]}},
{"type":"Feature","properties":{"josm":"w338516103","addrhousenumber":"77 а","region":"Донецька область"},"geometry":{"type":"Point","coordinates":[38.1703,47.94488]}},
{"type":"Feature","properties":{"josm":"w338516105","addrhousenumber":"77 б","region":"Донецька область"},"geometry":{"type":"Point","coordinates":[38.17141,47.94455]}},
{"type":"Feature","properties":{"josm":"w338523327","addrhousenumber":"77 а","region":"Донецька область"},"geometry":{"type":"Point","coordinates":[38.1703,47.94488]}},
{"type":"Feature","properties":{"josm":"w340772375","addrhousenumber":"4-к","region":"Полтавська область"},"geometry":{"type":"Point","coordinates":[34.42889,49.57071]}},
{"type":"Feature","properties":{"josm":"w340772391","addrhousenumber":"4-к","region":"Полтавська область"},"geometry":{"type":"Point","coordinates":[34.42829,49.56994]}},
{"type":"Feature","properties":{"josm":"w342863891","addrhousenumber":"71a","region":"Львівська область"},"geometry":{"type":"Point","coordinates":[24.07614,49.82145]}},
{"type":"Feature","properties":{"josm":"w343430732","addrhousenumber":"122a","region":"Львівська область"},"geometry":{"type":"Point","coordinates":[23.99626,49.79953]}},
{"type":"Feature","properties":{"josm":"w43935960","addrhousenumber":"1E","region":"Дніпропетровська область"},"geometry":{"type":"Point","coordinates":[34.55828,48.59057]}},
{"type":"Feature","properties":{"josm":"w93174211","addrhousenumber":"34 Б","region":"Севастополь"},"geometry":{"type":"Point","coordinates":[33.50411,44.61211]}},
{"type":"Feature"}
]}
